id,name,business_type,type,address,location,pname,cityname,adname,tel,business_area,rating,cost,longitude,latitude
B0FFM3VU7C,奈雪的茶(赣州万象城慢闪街店),奶茶店,餐饮服务;冷饮店;冷饮店,章江新区新赣州大道8号华润中心万象城A门外广场场地1号铺,"114.924976,25.815924",江西省,赣州市,章贡区,13925240034,[],4.6,30.00,114.924976,25.815924
B0JGZZEG1E,CHAGEE霸王茶姬(赣州中联商城店),奶茶店,餐饮服务;冷饮店;冷饮店,文清路8号中联商场,"114.941075,25.852287",江西省,赣州市,章贡区,19870813708,红旗大道,4.8,20.00,114.941075,25.852287
B0JBDUTSIW,喜茶(赣州万象城店),奶茶店,餐饮服务;冷饮店;冷饮店,万象城1层L120K,"114.926166,25.815271",江西省,赣州市,章贡区,0797-8128860,[],4.6,18.00,114.926166,25.815271
B0LB2LRJXS,古茗(赣州万象城四楼店),奶茶店,餐饮服务;冷饮店;冷饮店,新赣州大道8号华润中心B1区19号区幸福汇商铺,"114.926604,25.814523",江西省,赣州市,章贡区,13666823910,[],4.4,15.00,114.926604,25.814523
B0K6579MMJ,爷爷不泡茶NOYEYENOTEA(赣州经开万达店),奶茶店,餐饮服务;冷饮店;冷饮店,金岭大道18号经开万达广场4F4031A铺,"114.902135,25.842761",江西省,赣州市,章贡区,19067028712,[],4.2,15.00,114.902135,25.842761
B0FFIAPT2M,CoCo都可(中联商城店),奶茶店,餐饮服务;冷饮店;冷饮店|购物服务;购物相关场所;购物相关场所,文清路8号中联商城F栋一层大厅电梯底下店面,"114.941667,25.852191",江西省,赣州市,章贡区,18970797072,文清路,4.2,13.00,114.941667,25.852191
B0G144ED04,奈雪的茶(赣州九方购物中心店),奶茶店,餐饮服务;冷饮店;冷饮店,长征大道1号赣州中航城招商用房五层九方购物中心L117-L118号铺,"114.936801,25.835979",江西省,赣州市,章贡区,[],瑞金路,4.8,30.00,114.936801,25.835979
B0JB4SZSAF,CHAGEE霸王茶姬(赣州万象城金街店),奶茶店,餐饮服务;冷饮店;冷饮店,新赣州大道8号华润大厦B座5号幸福汇商铺,"114.926561,25.816650",江西省,赣州市,章贡区,19079811988,[],4.4,17.00,114.926561,25.81665
B0JAR52OH0,喜茶(赣州步步高新天地店),奶茶店,餐饮服务;冷饮店;冷饮店,红旗大道33号,"114.941039,25.848842",江西省,赣州市,章贡区,19323921451,文明大道,4.4,21.00,114.941039,25.848842
B0KRNCN70N,茉莉奶白(赣州万象城店),奶茶店,餐饮服务;冷饮店;冷饮店,万象城商场1楼145号茉莉奶白,"114.926067,25.815850",江西省,赣州市,章贡区,13247050710,[],4.2,20.00,114.926067,25.81585
B0LA3SDQZG,煲珠公老红糖珍珠奶茶(中联商城步行街店),奶茶店,餐饮服务;冷饮店;冷饮店,文清路8号中联商城M栋12号店铺,"114.940865,25.852111",江西省,赣州市,章贡区,19067050446,红旗大道,4.2,12.00,114.940865,25.852111
B0GK5U9N5O,茶百道(赣州万象城店),奶茶店,餐饮服务;冷饮店;冷饮店,华润万象城中心B2区幸福汇商业A幢3号幸福汇商铺,"114.924758,25.815489",江西省,赣州市,章贡区,18162192172,[],4.3,17.00,114.924758,25.815489
B0HU15BPVO,奈雪的茶(赣州宝能环球汇PRO店),奶茶店,餐饮服务;冷饮店;冷饮店,赣江源大道与瑞金路交汇处宝能环球汇1043-1044铺,"114.948161,25.819123",江西省,赣州市,章贡区,0797-8329321,[],4.2,16.00,114.948161,25.819123
B0I3ZSVY0V,CHAGEE霸王茶姬(江西赣州经开万达广场店),奶茶店,餐饮服务;冷饮店;冷饮店,赣州经济技术开发区金陵大道18号万达广场步行街一楼105金岭大道1051号商铺,"114.900003,25.840627",江西省,赣州市,章贡区,4008788359,[],4.4,19.00,114.900003,25.840627
B0JRRRUUWW,喜茶(赣州招商花园城店),奶茶店,餐饮服务;冷饮店;冷饮店,长征大道1号招商花园城L116商铺,"114.935975,25.835775",江西省,赣州市,章贡区,17770700673,瑞金路,4.4,13.00,114.935975,25.835775
B0FFKIW0X8,CoCo都可(万象城2店),奶茶店,餐饮服务;冷饮店;冷饮店,新赣州大道8号华润中心幸福汇B栋110商铺,"114.926944,25.815720",江西省,赣州市,章贡区,19179082545,[],4.3,15.00,114.926944,25.81572
B0LA9HVKCC,煲珠公.老红糖珍珠奶茶(赣州万象城店),奶茶店,餐饮服务;冷饮店;冷饮店,新赣州大道8号华润中心万象城L5-M3商铺,"114.926125,25.815175",江西省,赣州市,章贡区,[],[],4.3,12.00,114.926125,25.815175
B0H0M1NR73,茶百道(赣州赣三中店),奶茶店,餐饮服务;冷饮店;冷饮店,青年路21号-4(赣三中正对面),"114.939133,25.854347",江西省,赣州市,章贡区,19379720118,文清路,4.4,14.00,114.939133,25.854347
B0K2H5L5DR,1点点(赣州万象城店),奶茶店,餐饮服务;休闲餐饮场所;休闲餐饮场所|餐饮服务;冷饮店;冷饮店,华润中心B1-10号幸福汇商铺,"114.927119,25.815535",江西省,赣州市,章贡区,0797-8188106,[],4.5,13.00,114.927119,25.815535
B0JDZZA6HF,CHAGEE霸王茶姬(赣州大学城店),奶茶店,餐饮服务;冷饮店;冷饮店,105国道赣南大学城文化广场1F,"114.891721,25.798229",江西省,赣州市,章贡区,17879900362,[],4.7,14.00,114.891721,25.798229
B0JDBUH3OH,喜茶(赣州经开万达广场店),奶茶店,餐饮服务;冷饮店;冷饮店,金岭大道18号赣州经开万达广场1楼1005B,"114.900467,25.840602",江西省,赣州市,章贡区,18370753580,[],4.5,14.00,114.900467,25.840602
B0JK7HP4YM,LELECHA乐乐茶(赣州万象城店),奶茶店,餐饮服务;餐饮相关场所;餐饮相关,新赣州大道8号万象城购物中心赣州店L1层,"114.926777,25.814730",江西省,赣州市,章贡区,18179089559,[],4.5,14.00,114.926777,25.81473
B0HDRSTMVF,蜜雪冰城(赣州万象城店),奶茶店,餐饮服务;冷饮店;冷饮店,华润中心B2区幸福汇商业B座万象城B门B-11号,"114.926964,25.815727",江西省,赣州市,章贡区,[],[],4.7,5.00,114.926964,25.815727
B0G3D733T6,沪上阿姨·精选茶饮(赣州步步高新天地店),奶茶店,餐饮服务;冷饮店;冷饮店,红旗大道33号步步高新天地8002A沪上阿姨,"114.940731,25.848561",江西省,赣州市,章贡区,17870197698,营角上,4.4,12.00,114.940731,25.848561
B0H6OMS6RC,茶百道(赣州九方店),奶茶店,餐饮服务;冷饮店;冷饮店,翠微路1号中航城3栋1-1022店面,"114.937425,25.835936",江西省,赣州市,章贡区,19170470825,瑞金路,4.5,15.00,114.937425,25.835936
B0JUG9MIJR,CHAGEE霸王茶姬(第五大道美食街店),奶茶店,餐饮服务;冷饮店;冷饮店,第五大道二期第5街2栋1层33号-2号商铺,"114.926399,25.818903",江西省,赣州市,章贡区,19142173998,[],4.6,16.00,114.926399,25.818903
B0J6BR3JIO,古茗(赣州郁孤台店),奶茶店,餐饮服务;冷饮店;冷饮店,西津路1号建国路住宅小区A1栋7号8号店铺,"114.939391,25.864132",江西省,赣州市,章贡区,18720855669,[],4.6,12.00,114.939391,25.864132
B0K0ALNWEG,奈雪的茶(赣州润达南门Q-PARK店),奶茶店,餐饮服务;冷饮店;冷饮店,南门广场润达南门Q-park1-26.27号铺,"114.938270,25.848194",江西省,赣州市,章贡区,13879750102,营角上,4.2,18.00,114.93827,25.848194
B0LAJRUVYB,洪都大拇指(赣州万象城店),奶茶店,餐饮服务;冷饮店;冷饮店|餐饮服务;快餐厅;快餐厅,新赣州大道8号华润中心幸福汇商业A座124号幸福汇商铺,"114.926563,25.815885",江西省,赣州市,章贡区,18579717378,[],4.5,14.00,114.926563,25.815885
B0L6P67XM8,茉酸奶(君尚购物中心赣州店),奶茶店,餐饮服务;冷饮店;冷饮店,君尚购物中心负一楼中岛B1041铺,"114.932725,25.816750",江西省,赣州市,章贡区,19144492678,[],4.0,17.00,114.932725,25.81675
B0I2N1OAKL,茶百道(赣州大学店),奶茶店,餐饮服务;冷饮店;冷饮店,赣州蓉江新区高校园区赣南大学文化广场7号楼一层110-111号商铺,"114.893349,25.798180",江西省,赣州市,章贡区,13956603555,[],4.4,13.00,114.893349,25.79818
B0JDZZ2RZI,CHAGEE霸王茶姬(九方店),奶茶店,餐饮服务;冷饮店;冷饮店,[],"114.935399,25.836131",江西省,赣州市,章贡区,19136727259,瑞金路,4.5,18.00,114.935399,25.836131
B0HUAU794M,古茗(赣州章贡中联店),奶茶店,餐饮服务;餐饮相关场所;餐饮相关,中联商城M栋10号,"114.940751,25.852158",江西省,赣州市,章贡区,18370705157,文清路,4.0,16.00,114.940751,25.852158
B0JKRC2DI2,闻香婆婆老红糖珍珠鲜奶(赣州万盛店),奶茶店,餐饮服务;冷饮店;冷饮店,宁都路16-10号,"114.939360,25.825069",江西省,赣州市,章贡区,15012640609,[],4.1,14.00,114.93936,25.825069
B0L6U92LAX,洪都大拇指(赣州中联商城店),奶茶店,餐饮服务;快餐厅;快餐厅,赣江街道文清路8号中联商城F栋1楼,"114.941667,25.852191",江西省,赣州市,章贡区,13750046248,红旗大道,4.7,13.00,114.941667,25.852191
B0KBB1ORES,CHAGEE霸王茶姬(江西赣州达芬奇店),奶茶店,餐饮服务;冷饮店;冷饮店,长冈路13-25正,"114.930009,25.824176",江西省,赣州市,章贡区,19324873913,[],4.7,20.00,114.930009,25.824176
B0IU5ATY8J,古茗(章贡绵江路中央城),奶茶店,餐饮服务;冷饮店;冷饮店,绵江路馨安家园3栋5号,"114.914537,25.813676",江西省,赣州市,章贡区,18325305300;19079707688,[],4.3,16.00,114.914537,25.813676
B0IA67DDB4,蜜雪冰城(鸿泰花园店),奶茶店,餐饮服务;冷饮店;冷饮店,三百山路9号鸿泰花园,"114.930096,25.813116",江西省,赣州市,章贡区,13317979866;19870722879,[],4.7,9.00,114.930096,25.813116
B0LRDR70RD,洪都大拇指(巨亿万达店),奶茶店,餐饮服务;快餐厅;快餐厅,八一四大道39号巨亿赣南电商城一期、东区地下室超市B1-C13A,"114.957756,25.832808",江西省,赣州市,章贡区,18518181389,八一四大道,4.4,15.00,114.957756,25.832808
B0J22MTMG6,上岸Ashore(咖啡·酒吧·奶茶·轻食),奶茶店,体育休闲服务;娱乐场所;酒吧,水东镇玉虚观浮桥头25号附1号店面,"114.952397,25.865518",江西省,赣州市,章贡区,19136914638,[],4.4,21.00,114.952397,25.865518
B0JUXCXI1M,茶百道(西城广场店),奶茶店,餐饮服务;冷饮店;冷饮店,章贡区经济技术开发区杨坑公寓返迁房1号楼2号店面,"114.860804,25.843684",江西省,赣州市,章贡区,19144485886,[],4.4,12.00,114.860804,25.843684
B0L6K1R21L,CHAGEE霸王茶姬(江西赣州君尚购物中心店),奶茶店,餐饮服务;冷饮店;冷饮店,君尚购物中心赣州店1层1017号,"114.933265,25.817530",江西省,赣州市,章贡区,[],[],4.5,15.00,114.933265,25.81753
B0LRD55C3Q,古茗(赣州一中店),奶茶店,餐饮服务;冷饮店;冷饮店,东外街道厚德路赣48-12(赣一中对面),"114.948898,25.854521",江西省,赣州市,章贡区,13576669867,红旗大道,4.4,16.00,114.948898,25.854521
B0FFKXUU6O,CoCo都可(大学城店),奶茶店,餐饮服务;冷饮店;冷饮店,蓉江二路与创新二路交汇处东南侧赣南大学城文化广场4栋211-212号商铺,"114.892485,25.798071",江西省,赣州市,章贡区,19136709525,[],4.2,12.00,114.892485,25.798071
B0LD3RKPIX,洪都大拇指(赣州经开万达店),奶茶店,餐饮服务;冷饮店;冷饮店,金岭大道18号1-A-0002,"114.899874,25.840646",江西省,赣州市,章贡区,15879736887,[],4.3,14.00,114.899874,25.840646
B0LATD1F2F,库迪咖啡便利店(赣州招商局中心店),奶茶店,餐饮服务;咖啡厅;咖啡厅,橙乡大道50号招商局中心裙楼A-L1010商业,"114.913926,25.809279",江西省,赣州市,章贡区,17679300926,[],4.3,8.00,114.913926,25.809279
B0KKBDEEXZ,茶百道(赣州君尚购物中心店),奶茶店,餐饮服务;冷饮店;冷饮店,新赣州大道5号水游城X公域S-3号楼1-68号商业,"114.933508,25.816032",江西省,赣州市,章贡区,13767747769;15970146652,[],4.2,17.00,114.933508,25.816032
B0KKDU5M0F,CHAGEE霸王茶姬(江西赣州步步高新天地店),奶茶店,餐饮服务;冷饮店;冷饮店,步步高新天地1层,"114.941230,25.848862",江西省,赣州市,章贡区,4008788359,红旗大道,4.7,18.00,114.94123,25.848862
B0L6XH2KMJ,古茗(赣州第五大道店),奶茶店,餐饮服务;冷饮店;冷饮店,水南街道琴江路6号第五大道2期美食街广场古茗奶茶,"114.926513,25.818940",江西省,赣州市,章贡区,18579705551,[],4.2,11.00,114.926513,25.81894
B0I2Y5UAR8,蜜雪冰城(沙河店),奶茶店,餐饮服务;冷饮店;冷饮店,沙河镇沙河站东大道48号,"114.970103,25.824774",江西省,赣州市,章贡区,19870722859,沙河,4.4,9.00,114.970103,25.824774
B0LRL7O8Z0,1点点(第五大道美食街店),奶茶店,餐饮服务;冷饮店;冷饮店,第五大道二期第五街2栋1层28,"114.926775,25.818975",江西省,赣州市,章贡区,0797-8266018,[],4.1,12.00,114.926775,25.818975
B0JR6URWWR,库迪咖啡(赣州华润大厦C座店),奶茶店,餐饮服务;咖啡厅;咖啡厅,三百山路华润大厦C座1号铺(地下停车场入口西北侧),"114.927988,25.815659",江西省,赣州市,章贡区,15007080429,[],4.2,10.00,114.927988,25.815659
B0K1670V16,茶理宜世(赣州万象城店),奶茶店,餐饮服务;冷饮店;冷饮店,新赣州大道8号赣州万象城B1,"114.925140,25.816183",江西省,赣州市,章贡区,15179060102,[],4.5,19.00,114.92514,25.816183
B0LDM54RUN,CHAGEE霸王茶姬(赣州万象城主题店),奶茶店,餐饮服务;冷饮店;冷饮店,新赣州大道8号万象城1层L159号铺,"114.926875,25.814279",江西省,赣州市,章贡区,19079811988,[],4.5,19.00,114.926875,25.814279
B0LU3DAAYR,古茗(赣州金色春城店),奶茶店,餐饮服务;冷饮店;冷饮店,赣州蓉江新区高校园区金色春城075号,"114.883302,25.784882",江西省,赣州市,章贡区,15970082198,[],4.5,15.00,114.883302,25.784882
B0H1M7XUAR,蜜雪冰城(赣南大学城文化广场店),奶茶店,餐饮服务;冷饮店;冷饮店,赣州蓉江新区高校园区大学文化广场5栋104-105号,"114.894008,25.798265",江西省,赣州市,章贡区,15637660292,[],4.1,[],114.894008,25.798265
B0KAHDUCKT,益禾堂(赣州万达金街店),奶茶店,餐饮服务;冷饮店;冷饮店,金坪东路与大坪路交叉口东南180米,"114.900707,25.841881",江西省,赣州市,章贡区,15727765129,[],4.5,13.00,114.900707,25.841881
B0JDODCO9P,库迪咖啡(赣州国际企业中心店),奶茶店,餐饮服务;咖啡厅;咖啡厅,华昌路9号国际企业中心5号楼1层底商,"114.895905,25.860045",江西省,赣州市,章贡区,18870765443,[],4.5,10.00,114.895905,25.860045
B0I2FROUVR,沪上阿姨·精选茶饮(赣州嘉福万达金街店),奶茶店,餐饮服务;冷饮店;冷饮店,金开区嘉福万达广场金街沪上阿姨,"114.899736,25.841057",江西省,赣州市,章贡区,13970700075,[],4.4,13.00,114.899736,25.841057
B0IRTRF5XV,古茗(赣州经开万达店),奶茶店,餐饮服务;冷饮店;冷饮店,章贡区经开区东江源大道与金岭东大道交汇处赣州经开万达3楼3012,"114.900833,25.841160",江西省,赣州市,章贡区,19970749118,[],4.3,16.00,114.900833,25.84116
B0I2HM0T7B,蜜雪冰城(招商花园城店),奶茶店,餐饮服务;冷饮店;冷饮店,九方购物中心南门东北70米,"114.937063,25.835453",江西省,赣州市,章贡区,15103502420;19079714648,瑞金路,4.6,10.00,114.937063,25.835453
B0LROZVOCL,茶百道(赣州巨亿万达广场店),奶茶店,餐饮服务;冷饮店;冷饮店,八一四大道巨亿万达广场3楼3026铺,"114.957814,25.832291",江西省,赣州市,章贡区,18070475900,八一四大道,4.5,13.00,114.957814,25.832291
B0JUOM35GK,库迪咖啡(赣州漫乐城店),奶茶店,餐饮服务;咖啡厅;咖啡厅,张家围路58号漫乐城广场一期1层52号底商,"114.950992,25.840752",江西省,赣州市,章贡区,19070753025,[],4.3,10.00,114.950992,25.840752
B0JU6UZKID,益禾堂(赣州章贡区宝能城店),奶茶店,餐饮服务;冷饮店;冷饮店,安远路9号宝能世纪城东区9-78号,"114.944853,25.821786",江西省,赣州市,章贡区,19870729378,[],4.4,14.00,114.944853,25.821786
B0KRKUE5BH,沪上阿姨·精选茶饮(赣州水游城店),奶茶店,餐饮服务;冷饮店;冷饮店,新赣州大道5号水游城X公域S-3号楼1-12号商业,"114.933185,25.815508",江西省,赣州市,章贡区,18270786214,[],4.3,14.00,114.933185,25.815508
B0IA5MBOXR,古茗(赣州潭口店),奶茶店,餐饮服务;冷饮店;冷饮店,潭口镇广场南路101号,"114.849135,25.741313",江西省,赣州市,章贡区,18370953329,[],4.5,16.00,114.849135,25.741313
B0H3JR5CMX,蜜雪冰城(宝能城店),奶茶店,餐饮服务;冷饮店;冷饮店,宝能世纪城东区9-89,"114.944865,25.821123",江西省,赣州市,章贡区,18046690621;18279771849,[],4.6,6.00,114.944865,25.821123
B0I6BAG96M,书亦烧仙草(赣州和乐新村店),奶茶店,餐饮服务;冷饮店;冷饮店,东江源大道与枫坪路交叉口西南100米,"114.917480,25.930141",江西省,赣州市,章贡区,18296754300,[],4.3,11.00,114.91748,25.930141
B0LACCL8ZG,库迪咖啡(赣南医科大学黄金西门店),奶茶店,餐饮服务;咖啡厅;咖啡厅,创业路6号,"114.896898,25.774232",江西省,赣州市,章贡区,18317972626,[],4.2,10.00,114.896898,25.774232
B0LA1CBU02,YUUNING·柠记手打柠檬茶(赣州宝能城店),奶茶店,餐饮服务;餐饮相关场所;餐饮相关,安远路9号宝能世纪城东区18-19号楼底层商业11号商铺,"114.947756,25.822254",江西省,赣州市,章贡区,19070435882,[],4.1,17.00,114.947756,25.822254
B0L659R0VK,茉莉奶白(万达广场店),奶茶店,餐饮服务;冷饮店;冷饮店,万达金街1205.1206号店铺,"114.899742,25.840824",江西省,赣州市,章贡区,15579784413,[],4.0,[],114.899742,25.840824
B0LUVDD7EW,古茗(中航云府店),奶茶店,餐饮服务;冷饮店;冷饮店,章贡区经济技术开发区水南路3号云府二期29号楼4号商铺,"114.910951,25.822376",江西省,赣州市,章贡区,13247900920,[],4.5,15.00,114.910951,25.822376
B0FFJ8B3Z9,蜜雪冰城(赣三中店),奶茶店,餐饮服务;冷饮店;冷饮店,青年路12号卡拉多隔壁,"114.935361,25.855319",江西省,赣州市,章贡区,19979747972,环城路,4.5,8.00,114.935361,25.855319
B0HU7AYROC,1点点(中联商城店),奶茶店,餐饮服务;冷饮店;冷饮店,文清路8号中联商城H栋7号店面,"114.941019,25.852294",江西省,赣州市,章贡区,0797-8278008,文清路,4.4,14.00,114.941019,25.852294
B0KU318IF8,闻香婆婆老红糖珍珠鲜奶(环城路店),奶茶店,餐饮服务;餐饮相关场所;餐饮相关,环城路20-2号,"114.935077,25.853819",江西省,赣州市,章贡区,13766399796,理工,4.0,13.00,114.935077,25.853819
B0LRMRZLFL,古茗(赣州君兰半岛店),奶茶店,餐饮服务;冷饮店;冷饮店,湖边镇经开区纬二路君兰半岛108-109号商铺,"114.903665,25.861770",江西省,赣州市,章贡区,13330156088,[],4.4,12.00,114.903665,25.86177
B0HKMRDLBR,古茗(章贡中海国际店),奶茶店,餐饮服务;冷饮店;冷饮店,五指峰路中海国际2栋4号商铺,"114.920757,25.828006",江西省,赣州市,章贡区,15015490815,[],4.3,16.00,114.920757,25.828006
B0LRSA4736,古茗(赣州站店),奶茶店,餐饮服务;冷饮店;冷饮店,五洲大道31号赣州火车站候车层ZT-05号,"114.964502,25.818711",江西省,赣州市,章贡区,13330174220,沙河,4.2,12.00,114.964502,25.818711
B0G1DLJR96,蜜雪冰城(步步高一楼店),奶茶店,餐饮服务;冷饮店;冷饮店,红旗大道步步高新天地一楼1055号,"114.940511,25.849003",江西省,赣州市,章贡区,15515565349,营角上,4.4,7.00,114.940511,25.849003
B0H0LDF615,1点点(九方步行街店),奶茶店,餐饮服务;甜品店;甜品店,长征大道1号赣州招商花园城F1层,"114.936719,25.835462",江西省,赣州市,章贡区,0797-8318008,瑞金路,4.4,16.00,114.936719,25.835462
B0LRSH4G84,古茗(赣南科技学院店),奶茶店,餐饮服务;冷饮店;冷饮店,赣南科技学院校内食堂边,"114.915444,25.839877",江西省,赣州市,章贡区,19170451688,客家大道,4.4,11.00,114.915444,25.839877
B0IK2UHGPZ,古茗(章贡和信广场店),奶茶店,餐饮服务;冷饮店;冷饮店,赣州经济技术开发区金凤东路15号和信广场ABCD栋117店铺,"114.907721,25.851468",江西省,赣州市,章贡区,19079777345,金东路,4.5,16.00,114.907721,25.851468
B0LU17FZHF,古茗(巨亿万达店),奶茶店,餐饮服务;冷饮店;冷饮店,八一四大道39号赣州巨亿万达广场3楼3012铺,"114.957434,25.832154",江西省,赣州市,章贡区,[],八一四大道,4.2,14.00,114.957434,25.832154
B0FFISDI6N,古茗(章贡青年路店),奶茶店,餐饮服务;冷饮店;冷饮店,青年路21-10号,"114.934413,25.855568",江西省,赣州市,章贡区,13979887116;17370730810,环城路,4.2,16.00,114.934413,25.855568
B0I1TZ8LR8,蜜雪冰城(西桥路店),奶茶店,餐饮服务;冷饮店;冷饮店,西桥路与西郊路交叉口西20米,"114.924337,25.854229",江西省,赣州市,章贡区,13617978830;15870016692,理工,4.4,11.00,114.924337,25.854229
B0L6FHELAJ,古茗(君尚购物中心店),奶茶店,餐饮服务;冷饮店;冷饮店,赣南高架路辅路3号靠近赣州君尚购物中心,"114.932271,25.816623",江西省,赣州市,章贡区,18255579707,[],4.0,13.00,114.932271,25.816623
B0H0YZGAA6,古茗(章贡万盛商场店),奶茶店,餐饮服务;冷饮店;冷饮店,兴国路9号万盛购物中心L1-023C铺,"114.939875,25.827075",江西省,赣州市,章贡区,19379959011,[],4.5,16.00,114.939875,25.827075
B0HKGRH203,古茗(赣州步步高新天地店),奶茶店,餐饮服务;休闲餐饮场所;休闲餐饮场所,红旗大道33号步步高·新天地 赣州店F7层,"114.940604,25.848587",江西省,赣州市,章贡区,17779728711;4000666577,文明大道,4.3,16.00,114.940604,25.848587
B0H2F9LK63,古茗(章贡美地亚·天骏店),奶茶店,餐饮服务;冷饮店;冷饮店,章江新区三百山路16-46,"114.929648,25.812744",江西省,赣州市,章贡区,19870327718,[],4.5,16.00,114.929648,25.812744
B0IDPAPPRX,古茗(赣州西城广场店),奶茶店,餐饮服务;冷饮店;冷饮店,西城广场1号楼5号店友邦大药房旁边,"114.860794,25.843593",江西省,赣州市,章贡区,17770770618;19323820322,[],4.3,16.00,114.860794,25.843593
B0I21LR96H,蜜雪冰城(渔湾里),奶茶店,餐饮服务;冷饮店;冷饮店,南外街塘窝里107号,"114.927492,25.846216",江西省,赣州市,章贡区,17846569318;18520663060,文明大道,4.6,8.00,114.927492,25.846216
B0G1R50KKQ,古茗(赣州宝能城店),奶茶店,餐饮服务;冷饮店;冷饮店,宝能城东区商业街9-10号楼11号铺,"114.944950,25.820981",江西省,赣州市,章贡区,19196762131,[],4.2,16.00,114.94495,25.820981
B0I217NA9X,古茗(翠谷康居店),奶茶店,餐饮服务;冷饮店;冷饮店,翠谷康居10幢27-28商铺,"114.901675,25.866975",江西省,赣州市,章贡区,19179780118,[],4.5,16.00,114.901675,25.866975
B0I1XSO9DO,蜜雪冰城(潭口店),奶茶店,餐饮服务;冷饮店;冷饮店,广场南路9697号,"114.849594,25.741505",江西省,赣州市,章贡区,17679373550,[],4.5,7.00,114.849594,25.741505
B0LB2LRK8B,古茗(赣州沙石店),奶茶店,餐饮服务;冷饮店;冷饮店,峰山大道古茗沙石店,"114.941650,25.781880",江西省,赣州市,章贡区,13330156088,[],4.5,[],114.94165,25.78188
B0IUUMMGA1,蜜雪冰城(翠谷康居社区店),奶茶店,餐饮服务;冷饮店;冷饮店,赣州经济技术开发区湖边镇翠谷康居10号楼29号商铺,"114.901480,25.866954",江西省,赣州市,章贡区,15970959776,[],4.5,9.00,114.90148,25.866954
B0LULR8NRM,古茗(赣港康居店),奶茶店,餐饮服务;冷饮店;冷饮店,经济技术开发区赣港康居2-02-3商铺,"114.873461,25.869548",江西省,赣州市,章贡区,18679677872,[],4.3,[],114.873461,25.869548
B0LAADGYGZ,幸运咖(环城路店),奶茶店,餐饮服务;咖啡厅;咖啡厅,青年路15号(原19号)保育院教学楼综合楼一层店面15-31店面,"114.935573,25.854588",江西省,赣州市,章贡区,18270008032,红旗大道,4.3,8.00,114.935573,25.854588
B0LB2LNO10,古茗(赣州水碓康居店),奶茶店,餐饮服务;冷饮店;冷饮店,金龙路水碓返迁房1排33号,"114.873675,25.851848",江西省,赣州市,章贡区,17770770618,[],4.2,17.00,114.873675,25.851848
B0LU3M8F9X,LINLEE林里.手打柠檬茶(赣州万象城店),奶茶店,餐饮服务;冷饮店;冷饮店,华润万象城b1LB55号商铺,"114.924975,25.816126",江西省,赣州市,章贡区,19047756552,[],4.4,13.00,114.924975,25.816126
B0L6X7TEWA,古茗(湖边店),奶茶店,餐饮服务;冷饮店;冷饮店,湖边镇城中村安置小区2栋5号,"114.915008,25.879712",江西省,赣州市,章贡区,19379948838,[],4.5,15.00,114.915008,25.879712
B0LB27S3U7,蜜雪冰城(文清路店),奶茶店,餐饮服务;休闲餐饮场所;休闲餐饮场所,文清路8号中联商城D栋6号,"114.941564,25.851973",江西省,赣州市,章贡区,19979747972,红旗大道,4.0,10.00,114.941564,25.851973
B0FFIL9BA2,茶巢(赣州达芬奇店),奶茶店,餐饮服务;冷饮店;冷饮店,长岗路13-3达芬国际中心1号楼号商铺,"114.930316,25.823787",江西省,赣州市,章贡区,17346677914;18970734598,[],4.0,13.00,114.930316,25.823787
B0FFJIG10X,益禾堂(赣南师范校内店),奶茶店,餐饮服务;冷饮店;冷饮店,赣南师范学院黄金校区商务中心二楼,"114.887205,25.797015",江西省,赣州市,章贡区,15779781197,[],4.4,12.00,114.887205,25.797015
B0JR6KBAWF,蜜雪冰城(黄金时代店),奶茶店,餐饮服务;冷饮店;冷饮店,梅州路11号黄金时代C区38栋2-3号,"114.928840,25.832018",江西省,赣州市,章贡区,13698062773;18278043662,[],4.2,9.00,114.92884,25.832018
B0J225WZP9,古茗(章贡永康锦园店),奶茶店,餐饮服务;餐饮相关场所;餐饮相关,黄屋坪路26-5号,"114.946498,25.841257",江西省,赣州市,章贡区,19970787270,文明大道,4.5,16.00,114.946498,25.841257
B0IU57ZPIK,蜜雪冰城(中海店),奶茶店,餐饮服务;冷饮店;冷饮店,五指峰路19号赣州中海国际社区锦园B16地块商业区15商铺,"114.921744,25.828140",江西省,赣州市,章贡区,19179794003,[],4.3,8.00,114.921744,25.82814
B0G2CH7GEV,古茗(章贡沙河大道店),奶茶店,餐饮服务;冷饮店;冷饮店,沙河镇沙河大道46号,"114.970287,25.824797",江西省,赣州市,章贡区,17307076008,沙河,4.5,15.00,114.970287,25.824797
B0JBOZOHSC,蜜雪冰城(南桥新村店),奶茶店,餐饮服务;冷饮店;冷饮店,南桥新村西二区北区北2号门东90米,"114.944765,25.825111",江西省,赣州市,章贡区,18107977587,瑞金路,4.5,10.00,114.944765,25.825111
B0JUANJUOM,CoCo都可(经开万达店),奶茶店,餐饮服务;冷饮店;冷饮店,赣州经济技术开发区金岭大道18号万达广场3楼321点位,"114.901097,25.841057",江西省,赣州市,章贡区,17746679525,[],4.0,12.00,114.901097,25.841057
B0LBTD06D6,蜜雪冰城(万象城二店),奶茶店,餐饮服务;冷饮店;冷饮店,琴江路5号华润中心C1区16号楼29幸福汇商铺(含二层商铺内部用房),"114.927217,25.816573",江西省,赣州市,章贡区,18179731062;18579666976,[],4.3,5.00,114.927217,25.816573
B0LAXU1GCO,CHAGEE霸王茶姬(江西赣州招商花园城店),奶茶店,餐饮服务;冷饮店;冷饮店,长征大道1号招商花园城1号门L156-2商铺,"114.935325,25.836075",江西省,赣州市,章贡区,4008788359,瑞金路,4.2,[],114.935325,25.836075
B0KG5H9AE5,蜜雪冰城(金钻店),奶茶店,餐饮服务;冷饮店;冷饮店,东外街道八一四大道东门花苑1-81-9号,"114.956761,25.848272",江西省,赣州市,章贡区,19870812103,八一四大道,4.3,9.00,114.956761,25.848272
B0I2J71FH5,古茗(赣州万达金街店),奶茶店,餐饮服务;休闲餐饮场所;休闲餐饮场所,金岭路嘉福万达金街1224铺,"114.900838,25.840872",江西省,赣州市,章贡区,18878449557;19917179118,[],4.3,16.00,114.900838,25.840872
B0KDDA5U7Y,蜜雪冰城(水西店),奶茶店,餐饮服务;冷饮店;冷饮店,水西镇湖景路水西美食街一期2号店铺蜜雪冰城,"114.923251,25.892098",江西省,赣州市,章贡区,18046690621,[],4.3,10.00,114.923251,25.892098
B0K1KHLVLG,古茗(赣州黄金时代店),奶茶店,餐饮服务;冷饮店;冷饮店,赞贤路13号华城文远阁A栋2号店,"114.928473,25.832255",江西省,赣州市,章贡区,19979431997,[],4.3,12.00,114.928473,25.832255
B0I1F7QMH6,蜜雪冰城(阳光瑞香新城店),奶茶店,餐饮服务;冷饮店;冷饮店,赣江源大道南侧阳光瑞香新城2栋c组团9-3号店铺,"114.941917,25.817331",江西省,赣州市,章贡区,18870880871,[],4.5,13.00,114.941917,25.817331
B0JGCAJ6T0,库迪咖啡(赣州豪德银座店),奶茶店,餐饮服务;咖啡厅;咖啡厅,章江南大道18号,"114.943674,25.834048",江西省,赣州市,章贡区,19970978092,瑞金路,4.3,10.00,114.943674,25.834048
B0FFGWQIDT,蜜雪冰城(师专店),奶茶店,餐饮服务;冷饮店;冷饮店,赣南大道赣州师范高等专科学校16栋宿舍楼下蜜雪冰城,"114.898438,25.796053",江西省,赣州市,章贡区,15226028799,[],4.4,10.00,114.898438,25.796053
B0KRFCQ0A0,奈雪的茶(赣州经开万达广场店),奶茶店,餐饮服务;冷饮店;冷饮店,章贡区经济技术开发区金岭大道18号万达广场1F层1205-1206号商铺,"114.901545,25.841859",江西省,赣州市,章贡区,15970058388,[],4.6,21.00,114.901545,25.841859
B0FFGWQIDT,蜜雪冰城(师专店),奶茶店,餐饮服务;冷饮店;冷饮店,赣南大道赣州师范高等专科学校16栋宿舍楼下蜜雪冰城,"114.898438,25.796053",江西省,赣州市,章贡区,15226028799,[],4.4,10.00,114.898438,25.796053
B0KRFCQ0A0,奈雪的茶(赣州经开万达广场店),奶茶店,餐饮服务;冷饮店;冷饮店,章贡区经济技术开发区金岭大道18号万达广场1F层1205-1206号商铺,"114.901545,25.841859",江西省,赣州市,章贡区,15970058388,[],4.6,21.00,114.901545,25.841859
B0LR2954H8,蜜雪冰城(娱乐城店),奶茶店,餐饮服务;冷饮店;冷饮店,水南镇瑞金路25号南桥新村东二区,"114.949268,25.825500",江西省,赣州市,章贡区,17621429202,瑞金路,4.3,9.00,114.949268,25.8255
B0I26MBZW4,蜜雪冰城(舒米百货店),奶茶店,餐饮服务;冷饮店;冷饮店,金岭大道与东江源大道交叉口东80米,"114.902999,25.840449",江西省,赣州市,章贡区,15226028799,[],4.4,8.00,114.902999,25.840449
B0K67SBM47,蜜雪冰城(建国路店),奶茶店,餐饮服务;冷饮店;冷饮店,西津路1-3号,"114.939665,25.864217",江西省,赣州市,章贡区,[],[],4.4,7.00,114.939665,25.864217
B0LB2RLILL,古茗(章贡和谐家园店),奶茶店,餐饮服务;冷饮店;冷饮店,新路村323国道西侧和谐家园小区7-1-10商铺,"114.910092,25.777710",江西省,赣州市,章贡区,19979431997,[],4.5,13.00,114.910092,25.77771
B0JBMC0SAQ,蜜雪冰城(万达广场店),奶茶店,餐饮服务;冷饮店;冷饮店,嘉福万达金街1F1145店铺,"114.899700,25.840273",江西省,赣州市,章贡区,19179099220,[],3.9,9.00,114.8997,25.840273
B0LGMXB18K,蜜雪冰城(蟠龙店),奶茶店,餐饮服务;冷饮店;冷饮店,蟠龙镇河坝陈屋安居小区4栋6号店铺,"114.864417,25.827671",江西省,赣州市,章贡区,19070777132,[],4.3,9.00,114.864417,25.827671
B0JDYAZ1FV,蜜雪冰城(厚德路店),奶茶店,餐饮服务;冷饮店;冷饮店,厚德路56号,"114.948083,25.854315",江西省,赣州市,章贡区,18879738626,红旗大道,4.3,5.00,114.948083,25.854315
B0FFIP04DV,古茗(章贡赣南大学城店),奶茶店,餐饮服务;冷饮店;冷饮店,赣南大学城文化广场125号,"114.892485,25.798071",江西省,赣州市,章贡区,15679751173;17779783131,[],4.2,16.00,114.892485,25.798071
B0IKD7CNMM,库迪咖啡(赣州阳明国际中心店),奶茶店,餐饮服务;咖啡厅;咖啡厅,赣州大道18号阳明国际中心1号楼大堂右侧,"114.921189,25.810057",江西省,赣州市,章贡区,18000777509,[],4.3,10.00,114.921189,25.810057
B0LDA5F68U,Sunlth森林子·健康果蔬茶(第5大道店),奶茶店,购物服务;专卖店;专营店,琴江路第5大道二期一层2-1号商铺,"114.926279,25.818460",江西省,赣州市,章贡区,[],[],4.5,19.00,114.926279,25.81846
B0LAA7DD4K,蜜雪冰城(华荣小区店),奶茶店,餐饮服务;餐饮相关场所;餐饮相关,九曲河路华荣小区农贸市场一楼5号店面,"114.922367,25.804615",江西省,赣州市,章贡区,[],[],4.3,10.00,114.922367,25.804615
B0LGFCS4Z5,蜜雪冰城(金坪花园店),奶茶店,餐饮服务;冷饮店;冷饮店,黄屋坪路39号永康锦园6号商铺,"114.946710,25.841500",江西省,赣州市,章贡区,13360003360,文明大道,4.4,10.00,114.94671,25.8415
B0H101Y4SW,古茗(赣州华坚商业街店),奶茶店,餐饮服务;冷饮店;冷饮店,贵竹城西门北70米,"114.896465,25.844627",江西省,赣州市,章贡区,13862496827;17779785887,华坚路,4.3,[],114.896465,25.844627
B0K377THP2,沪上阿姨·精选茶饮(赣州大学城店),奶茶店,餐饮服务;冷饮店;冷饮店,赣州蓉江新区高校园区赣南大学城文化广场2号楼1层141号商铺,"114.892485,25.798071",江西省,赣州市,章贡区,19179466596,[],3.9,12.00,114.892485,25.798071
B0K3HL8L7X,蜜雪冰城(八一四大道万达广场店),奶茶店,餐饮服务;冷饮店;冷饮店,八一四大道39号巨亿赣南电商城一期8号楼一层4号商业,"114.957542,25.832787",江西省,赣州市,章贡区,19170426630,八一四大道,4.5,9.00,114.957542,25.832787
B0L6X5XW8L,蜜雪冰城(第五大道店),奶茶店,餐饮服务;冷饮店;冷饮店,琴江路6号第五大道二期3号楼1-73商铺,"114.926179,25.817991",江西省,赣州市,章贡区,[],[],4.2,9.00,114.926179,25.817991
B0IDY5UR24,蜜雪冰城(关刀坪路店),奶茶店,餐饮服务;冷饮店;冷饮店,张家围路38号富安商住楼蜜雪冰城(张家围店),"114.951090,25.841068",江西省,赣州市,章贡区,15226028799,[],4.4,4.00,114.95109,25.841068
B0I32RPAJ3,蜜雪冰城(赣州经开区上犹路店),奶茶店,餐饮服务;冷饮店;冷饮店,赣州经济技术开发区上犹路黄金康居小区5栋1号店面,"114.910833,25.829298",江西省,赣州市,章贡区,15970122885,[],4.5,7.00,114.910833,25.829298
B0IDY5UR24,蜜雪冰城(关刀坪路店),奶茶店,餐饮服务;冷饮店;冷饮店,张家围路38号富安商住楼蜜雪冰城(张家围店),"114.951090,25.841068",江西省,赣州市,章贡区,15226028799,[],4.4,4.00,114.95109,25.841068
B0I32RPAJ3,蜜雪冰城(赣州经开区上犹路店),奶茶店,餐饮服务;冷饮店;冷饮店,赣州经济技术开发区上犹路黄金康居小区5栋1号店面,"114.910833,25.829298",江西省,赣州市,章贡区,15970122885,[],4.5,7.00,114.910833,25.829298
B0JADSDTSW,古茗(章贡水南娱乐城店),奶茶店,餐饮服务;冷饮店;冷饮店,水南镇南桥新村东二区51-1号楼A1号店面,"114.949453,25.825242",江西省,赣州市,章贡区,19917197818,瑞金路,4.2,16.00,114.949453,25.825242
B0JALU8NGR,库迪咖啡(章贡区中联商城店),奶茶店,餐饮服务;咖啡厅;咖啡厅,中联商城F栋5号底商(中心转盘处南侧),"114.941712,25.852181",江西省,赣州市,章贡区,17879928245,红旗大道,4.2,10.00,114.941712,25.852181
B0KURDY3KE,雾鲜(万达广场店),奶茶店,餐饮服务;餐饮相关场所;餐饮相关,金岭东大道嘉福万达广场1F1147,"114.901727,25.842164",江西省,赣州市,章贡区,19070726032,[],4.4,17.00,114.901727,25.842164
B0JRVUNIMF,库迪咖啡(赣州财智广场店),奶茶店,餐饮服务;咖啡厅;咖啡厅,兴国路18号财智广场B座1层外侧,"114.937477,25.829594",江西省,赣州市,章贡区,13317073724,[],4.3,10.00,114.937477,25.829594
B0KDCZOHHL,蜜雪冰城(京九路店),奶茶店,餐饮服务;冷饮店;冷饮店,中国五龙新村南区12栋1单元2号店铺,"114.961343,25.827179",江西省,赣州市,章贡区,18075112918;18975873388,沙河,4.6,12.00,114.961343,25.827179
B0IRTHDL2A,蜜雪冰城(家和园店),奶茶店,餐饮服务;冷饮店;冷饮店,家和园东北门西90米,"114.951367,25.816090",江西省,赣州市,章贡区,13979725480;19079805993,[],4.3,10.00,114.951367,25.81609
B0J12A4JKU,雾鲜(赣州大学城店),奶茶店,餐饮服务;餐饮相关场所;餐饮相关,蓉江新区高校园区赣南大学城文化广场7号楼一层105号商铺,"114.893307,25.798349",江西省,赣州市,章贡区,14779957831,[],4.1,15.00,114.893307,25.798349
B0LB29Q8RC,古茗(章贡人和园店),奶茶店,餐饮服务;冷饮店;冷饮店,寻乌路人和园3一4店铺,"114.951031,25.816449",江西省,赣州市,章贡区,13576669867,[],4.5,12.00,114.951031,25.816449
B0HD1A3W69,蜜雪冰城(杨坑店),奶茶店,餐饮服务;冷饮店;冷饮店,章贡区开发区杨坑安置小区23号店面,"114.860830,25.842635",江西省,赣州市,章贡区,13979177928;19147053091,[],4.4,10.00,114.86083,25.842635
B0G3AACZR9,古茗(章贡旺达广场店),奶茶店,餐饮服务;冷饮店;冷饮店,张家围路富安商住房7-8号,"114.951212,25.841054",江西省,赣州市,章贡区,18797875787,[],4.3,16.00,114.951212,25.841054
B0LRXZYKOY,洪都大拇指(君尚天虹店),奶茶店,餐饮服务;糕饼店;糕饼店|餐饮服务;冷饮店;冷饮店,新赣州大道3号赣州君尚购物中心B1层B1144铺,"114.932725,25.816750",江西省,赣州市,章贡区,13217976849,[],4.5,[],114.932725,25.81675
B0LGD7I274,蜜雪冰城(金星中心村店),奶茶店,餐饮服务;冷饮店;冷饮店,金蝉路与金叶路交叉口西20米,"114.899075,25.833025",江西省,赣州市,章贡区,[],[],4.4,10.00,114.899075,25.833025
B0LRMRZEHV,库迪咖啡(赣州西城广场店),奶茶店,餐饮服务;咖啡厅;咖啡厅,迎宾大道西城广场A3铺,"114.861210,25.844440",江西省,赣州市,章贡区,15216117687,[],4.3,13.00,114.86121,25.84444
B0I3X76BYV,蜜雪冰城(杨梅新村店),奶茶店,餐饮服务;冷饮店;冷饮店,杨梅新村A25栋3号店面,"114.898632,25.858277",江西省,赣州市,章贡区,19379588062,[],4.4,4.00,114.898632,25.858277
B0KA2HAP18,蜜雪冰城(阳光·和谐家园店),奶茶店,餐饮服务;冷饮店;冷饮店,蓉江新区阳光和谐家园蜜雪冰城,"114.910266,25.776919",江西省,赣州市,章贡区,18770779953,[],4.0,9.00,114.910266,25.776919
B0KGRB77K9,蜜雪冰城(和信广场店),奶茶店,餐饮服务;冷饮店;冷饮店,森铁小区2栋3-4号铺,"114.907268,25.851439",江西省,赣州市,章贡区,15570087779,金东路,4.3,11.00,114.907268,25.851439
B0J27LYX59,1点点(赣州万达金街店),奶茶店,餐饮服务;餐饮相关场所;餐饮相关,章贡区经济开发区金岭大道18号赣州嘉福万达金街1134号,"114.900709,25.841879",江西省,赣州市,章贡区,0797-8081278,[],4.4,17.00,114.900709,25.841879
B0LAJCRVJ5,益禾堂(赣州翠谷康居店),奶茶店,餐饮服务;冷饮店;冷饮店,赣通大道888号翠谷康居社区奇迹时尚造型店,"114.901790,25.866945",江西省,赣州市,章贡区,19179758120,[],4.4,14.00,114.90179,25.866945
B0FFKB6SGY,麦当劳(赣州麦当劳宝能环球汇餐厅),小吃店,餐饮服务;快餐厅;麦当劳,章江新区赣江源大道与瑞金路交汇处宝能环球汇c101A-c101B商铺,"114.946737,25.820246",江西省,赣州市,章贡区,0797-8160039,[],4.8,25.00,114.946737,25.820246
B0JRHRI7O9,悦得闲广式点心茶楼(赣州万象城店),小吃店,餐饮服务;快餐厅;茶餐厅,万象城5楼535号商铺,"114.926404,25.814960",江西省,赣州市,章贡区,0797-5165557,[],4.7,72.00,114.926404,25.81496
B031D007NJ,于振华美食(章江北大道店),小吃店,餐饮服务;中餐厅;中餐厅,章江北大道88号(粮食局店面),"114.929321,25.843518",江西省,赣州市,章贡区,15879713740;18870730977,文明大道,4.4,12.00,114.929321,25.843518
B0FFLGBHR9,必胜客(赣州万象城店),小吃店,餐饮服务;快餐厅;快餐厅,新赣州大道8号华润中心B1区万象城B1层B59号商铺,"114.925749,25.815389",江西省,赣州市,章贡区,4009701890,[],4.5,50.00,114.925749,25.815389
B0FFGJ7HYZ,燕子婆早餐店(黄屋坪店),小吃店,餐饮服务;中餐厅;中餐厅,黄屋坪路25号,"114.946472,25.843523",江西省,赣州市,章贡区,13766357976;15970796337,章江北,4.1,11.00,114.946472,25.843523
B0KGFX8SRQ,周记蹄花(五指峰路店),小吃店,餐饮服务;中餐厅;中餐厅,五指峰路21号中海东郡A区B18号店铺,"114.922734,25.825884",江西省,赣州市,章贡区,18296996710,[],4.7,31.00,114.922734,25.825884
B0JAFLMM6I,西少侠·手工劲面·肉夹馍(赣州万达店),小吃店,餐饮服务;中餐厅;中餐厅,赣州经济技术开发区金岭大道18号万达广场4层4010,"114.901110,25.841283",江西省,赣州市,章贡区,13207076852,[],4.6,23.00,114.90111,25.841283
B0IBRR20ZQ,麦当劳(万盛购物中心店),小吃店,餐饮服务;快餐厅;快餐厅,万盛购物中心,"114.939603,25.826870",江西省,赣州市,章贡区,4009200205,[],4.7,28.00,114.939603,25.82687
B0FFHBIAZB,曾记萝卜饺艾米果(人民巷店),小吃店,餐饮服务;中餐厅;特色/地方风味餐厅,人民巷35号曾记萝卜饺艾米果,"114.938532,25.852923",江西省,赣州市,章贡区,15216109408,红旗大道,4.5,13.00,114.938532,25.852923
B0KDUP0AJJ,味千拉面(赣州万象城店),小吃店,餐饮服务;外国餐厅;日本料理,章江街道万象城负一楼必胜客,"114.925684,25.815266",江西省,赣州市,章贡区,15879793134,[],4.2,50.00,114.925684,25.815266
B0FFGB4BBM,老传统(春江花月C区店),小吃店,餐饮服务;中餐厅;中餐厅,章江北大道142号,"114.927561,25.859339",江西省,赣州市,章贡区,0797-8289991;13979768800;18979734444,章江北,4.4,13.00,114.927561,25.859339
B0FFJXXUN6,必胜客(红旗大道店),小吃店,餐饮服务;快餐厅;必胜客,红旗大道33号步步高·新天地 赣州店F1层,"114.941181,25.848995",江西省,赣州市,章贡区,4009701890,营角上,4.7,60.00,114.941181,25.848995
B0JRSHH9O9,麦食福手工意面(赣州万象城店),小吃店,餐饮服务;餐饮相关场所;餐饮相关,华润万象城金街102号商铺,"114.927094,25.815438",江西省,赣州市,章贡区,15970090011;19079928852,[],4.3,36.00,114.927094,25.815438
B0FFKCZKRO,陈女子美食城(绝味虾霸海亮天城店),小吃店,餐饮服务;中餐厅;中餐厅,赣康路海亮天城54栋,"114.927490,25.803149",江西省,赣州市,章贡区,0797-5162777;15079786526,[],4.4,69.00,114.92749,25.803149
B0FFIJQ1BE,钓鱼台小吃街,小吃店,购物服务;特色商业街;特色商业街,大公路103号,"114.941360,25.856394",江西省,赣州市,章贡区,[],文清路,4.1,18.00,114.94136,25.856394
B0I3TN4NY2,麦当劳(万达广场店),小吃店,餐饮服务;快餐厅;快餐厅,经开区东江源大道与金岭东大道交汇处嘉福万达金街,"114.899611,25.840768",江西省,赣州市,章贡区,0797-8198478;4009200205,[],4.6,30.00,114.899611,25.840768
B0FFF4VBMY,杜可以潮粥城(兴国路店),小吃店,餐饮服务;餐饮相关场所;餐饮相关,章江街道兴国路1号11栋101-3室,"114.946475,25.829498",江西省,赣州市,章贡区,0797-2167777;0797-8282777;18507078199,瑞金路,4.4,56.00,114.946475,25.829498
B0FFHA7A7H,东郊路早餐店,小吃店,餐饮服务;中餐厅;中餐厅,东郊路12-3号,"114.957781,25.854691",江西省,赣州市,章贡区,18214933648,红旗大道,4.4,14.00,114.957781,25.854691
B0G146BWZ4,一碗嗦粉,小吃店,餐饮服务;快餐厅;快餐厅,健康路71-1号(儿童公园对面),"114.945000,25.850687",江西省,赣州市,章贡区,18770719877,红旗大道,4.4,21.00,114.945,25.850687
B0JBNRZHOY,塔斯汀中国汉堡(赣州市沙河店),小吃店,餐饮服务;快餐厅;快餐厅,沙河镇站东大道34号门面,"114.970262,25.824362",江西省,赣州市,章贡区,19147050237,沙河,4.6,18.00,114.970262,25.824362
B031D0QTRG,味千拉面(赣州招商花园城店),小吃店,餐饮服务;餐饮相关场所;餐饮相关,长征大道1号赣州九方购物中心4楼,"114.936334,25.835752",江西省,赣州市,章贡区,17850080905,瑞金路,4.1,39.00,114.936334,25.835752
B031D0R1K0,张记传统烧饼店,小吃店,餐饮服务;中餐厅;中餐厅,南京路7号,"114.941715,25.859948",江西省,赣州市,章贡区,13766369648,南京路,4.3,3.00,114.941715,25.859948
B0G3DU0YX9,螺言蛳语,小吃店,餐饮服务;餐饮相关场所;餐饮相关,红环路7-9号,"114.933845,25.851878",江西省,赣州市,章贡区,[],环城路,4.5,13.00,114.933845,25.851878
B0HKVZ9ATQ,麦当劳(赣州第五大道餐厅),小吃店,餐饮服务;快餐厅;麦当劳,琴江路与五指峰路交叉口处,"114.926549,25.818774",江西省,赣州市,章贡区,4009200205,[],4.6,[],114.926549,25.818774
B0JRHRN5RM,欧记南昌水煮,小吃店,餐饮服务;中餐厅;中餐厅,达芬奇城市中心6-16号商铺,"114.923431,25.817978",江西省,赣州市,章贡区,18879731030,[],4.4,35.00,114.923431,25.817978
B0KKOLYRHV,好多多南昌水煮油炸(张家围店),小吃店,餐饮服务;餐饮相关场所;餐饮相关,赖家围路8-10号店面,"114.949121,25.839263",江西省,赣州市,章贡区,13979777770,章江北,4.4,23.00,114.949121,25.839263
B0FFMFS30R,周真真南昌粉面(达芬奇店),小吃店,餐饮服务;中餐厅;中餐厅,长冈路9-25号,"114.930260,25.824829",江西省,赣州市,章贡区,18179778158;18270972007,[],4.6,24.00,114.93026,25.824829
B0JA6ABJ0E,塔斯汀中国汉堡(金钻广场店),小吃店,餐饮服务;快餐厅;快餐厅,八一四大道8号金钻广场9栋楼一层A107A108A109商铺,"114.956631,25.847474",江西省,赣州市,章贡区,15387976991,文明大道,4.7,16.00,114.956631,25.847474
B031D0QS43,大辫子美食(中联商城店),小吃店,餐饮服务;中餐厅;火锅店,中联商城D栋19号宁都肉丸石城芋饺萝卜饺美食老店,"114.942032,25.851823",江西省,赣州市,章贡区,13970744708,红旗大道,4.4,17.00,114.942032,25.851823
B0FFMB50V8,肥阿姨家常菜,小吃店,餐饮服务;中餐厅;中餐厅,北京路2-2号,"114.942997,25.861491",江西省,赣州市,章贡区,18296799979,文清路,4.2,41.00,114.942997,25.861491
B0FFFTJKGM,瑞金烂厅下牛肉汤(千禧苑店),小吃店,餐饮服务;中餐厅;中餐厅,厚德路39-10号,"114.950090,25.854432",江西省,赣州市,章贡区,18879788621,红旗大道,4.2,12.00,114.95009,25.854432
B031D0QP6I,必胜客(翠微路店),小吃店,餐饮服务;快餐厅;必胜客,长征大道1号赣州招商花园城1层,"114.935747,25.836219",江西省,赣州市,章贡区,0797-8085127;0797-8681017;4009701890,瑞金路,4.4,69.00,114.935747,25.836219
B031D0R1JN,陈阿姨肉丸(小南门店),小吃店,餐饮服务;中餐厅;中餐厅,赣州市第一中学西门西北60米,"114.948087,25.853342",江西省,赣州市,章贡区,18370807207,红旗大道,4.1,9.00,114.948087,25.853342
B0K2Z5XMPU,柳州肥姨妈大骨螺蛳粉(营角上店),小吃店,餐饮服务;中餐厅;中餐厅,营角上路9号紫荆花园A栋3号店面,"114.941082,25.846507",江西省,赣州市,章贡区,13217073383,东阳山路,4.5,19.00,114.941082,25.846507
B0FFG8PYVY,余水胜美食(瑞安家园2区店),小吃店,餐饮服务;中餐厅;中餐厅,瑞安家园2区北门旁,"114.940274,25.825099",江西省,赣州市,章贡区,15970804771,[],4.6,21.00,114.940274,25.825099
B0J1AC45XA,塔斯汀中国汉堡(水游城X公域店),小吃店,餐饮服务;快餐厅;快餐厅,水游城X公域B座南门旁,"114.932361,25.815393",江西省,赣州市,章贡区,19917128456,[],4.7,18.00,114.932361,25.815393
B0FFLCL90R,味千拉面(杉杉奥特莱斯广场·赣州店),小吃店,餐饮服务;中餐厅;中餐厅,杉杉奥特莱斯购物广场一楼B116号商铺,"114.945540,25.803061",江西省,赣州市,章贡区,4009201097,[],4.5,40.00,114.94554,25.803061
B0J1FK0B7O,李记烧饼,小吃店,餐饮服务;餐饮相关场所;餐饮相关,柴火坪19-1,"114.939917,25.847719",江西省,赣州市,章贡区,18279113641,东阳山路,4.4,14.00,114.939917,25.847719
B0HU1MA1CP,十字街老太婆小吃(富苑小区店),小吃店,餐饮服务;中餐厅;中餐厅,水南镇章江路12号富苑小区,"114.927520,25.822688",江西省,赣州市,章贡区,13387085288;17307071557,[],4.2,14.00,114.92752,25.822688
B0JUHMOL6T,贝西姆·流芯披萨(阳光瑞香新城店),小吃店,餐饮服务;餐饮相关场所;餐饮相关,全南路39-56号,"114.941911,25.817361",江西省,赣州市,章贡区,19917194144,[],4.8,36.00,114.941911,25.817361
B0FFG4SY40,周记早点(阳明路店),小吃店,餐饮服务;中餐厅;中餐厅,坛子巷11-A-3,"114.942334,25.863004",江西省,赣州市,章贡区,13907972817,[],4.4,15.00,114.942334,25.863004
B0G3NDPY80,张亮麻辣烫(万象城直营店),小吃店,餐饮服务;中餐厅;特色/地方风味餐厅,新赣州大道8号华润中心B1区15号幸福汇商铺古茗奶茶隔壁,"114.926878,25.815688",江西省,赣州市,章贡区,18170699992,[],4.0,26.00,114.926878,25.815688
B0FFG3UCFI,阿乌叼早餐店,小吃店,餐饮服务;中餐厅;中餐厅,天竺山路12号,"114.957672,25.853459",江西省,赣州市,章贡区,15970042281,红旗大道,4.6,11.00,114.957672,25.853459
B0I3TK3RY5,必胜客(赣州经开万达店),小吃店,餐饮服务;快餐厅;必胜客,东江源大道辅路与金岭大道交叉口北180米,"114.901530,25.841805",江西省,赣州市,章贡区,13197913608;4008200775,[],4.5,48.00,114.90153,25.841805
B0FFG3UMNM,绝味鸭脖(赣州八一四店),小吃店,餐饮服务;餐饮相关场所;餐饮相关,八一四大道20-5号,"114.956253,25.843314",江西省,赣州市,章贡区,18379750400,文明大道,4.0,28.00,114.956253,25.843314
B0FFGSD62D,大余蓝氏烫皮,小吃店,餐饮服务;中餐厅;中餐厅,大公路35-1号(家常菜饭馆旁),"114.947494,25.857806",江西省,赣州市,章贡区,13426559847,[],4.2,8.00,114.947494,25.857806
B0IDL7HSU3,塔斯汀中国汉堡(水南新村店),小吃店,餐饮服务;快餐厅;快餐厅,章贵区水南新村西二区90号,"114.944717,25.824105",江西省,赣州市,章贡区,19323977680,瑞金路,4.7,21.00,114.944717,25.824105
B031D0RA6F,华顺美食,小吃店,餐饮服务;中餐厅;中餐厅,东阳山路8号4-5号,"114.938396,25.847673",江西省,赣州市,章贡区,18970141776;18970788626,营角上,4.4,13.00,114.938396,25.847673
B0JUHSTMCG,什嗲婆粉馆(阳明国际店),小吃店,餐饮服务;中餐厅;中餐厅,阳明国际中心西北1门旁,"114.919948,25.810271",江西省,赣州市,章贡区,18379794366,[],4.2,16.00,114.919948,25.810271
B0L6U92LAX,洪都大拇指(赣州中联商城店),小吃店,餐饮服务;快餐厅;快餐厅,赣江街道文清路8号中联商城F栋1楼,"114.941667,25.852191",江西省,赣州市,章贡区,13750046248,红旗大道,4.7,13.00,114.941667,25.852191
B0JUF7L6WK,解忧麻糍铺,小吃店,餐饮服务;餐饮相关场所;餐饮相关,小南门12号一楼3号,"114.948161,25.852545",江西省,赣州市,章贡区,17679380709,红旗大道,4.5,14.00,114.948161,25.852545
B0I2MG4A2L,麦当劳(赣州万象城店),小吃店,餐饮服务;快餐厅;麦当劳,新赣州大道8号赣州万象城,"114.924842,25.816359",江西省,赣州市,章贡区,0797-8116236,[],4.7,20.00,114.924842,25.816359
B0LABU4SKP,荣膳荷羊肉粉,小吃店,餐饮服务;中餐厅;中餐厅,三百山路16号美地亚天骏4栋9号店面,"114.930111,25.812466",江西省,赣州市,章贡区,15079756560,[],4.3,26.00,114.930111,25.812466
B0FFG3HT0R,曾记汤包铺(赖家围店),小吃店,餐饮服务;餐饮相关场所;餐饮相关,赣江街道赖家围路8号,"114.949196,25.839449",江西省,赣州市,章贡区,13970765884;15979854598,章江北,4.6,12.00,114.949196,25.839449
B0J0AKB5QW,袁记云饺(美地亚天骏店),小吃店,餐饮服务;中餐厅;特色/地方风味餐厅,三百山路16号美地亚天俊4号楼,"114.929966,25.812578",江西省,赣州市,章贡区,19196774835,[],4.6,14.00,114.929966,25.812578
B0HDNCDHY5,塔斯汀中国汉堡(赣州环城路店),小吃店,餐饮服务;快餐厅;快餐厅,环城路13号赣七中旁,"114.935624,25.854695",江西省,赣州市,章贡区,19379558587,文清路,4.7,20.00,114.935624,25.854695
B0LAJUILG0,虎头炸·潮汕南乳炸鸡(招商花园城店),小吃店,餐饮服务;快餐厅;快餐厅,长征大道1号招商花园城L1-K021商铺(招商花园2号门外左侧),"114.936585,25.836132",江西省,赣州市,章贡区,18827242397,瑞金路,4.0,20.00,114.936585,25.836132
B0J1OCD10H,老南昌走井拌粉,小吃店,餐饮服务;快餐厅;快餐厅,信丰路与五指峰路交叉口东40米,"114.921825,25.828207",江西省,赣州市,章贡区,18063782890,[],4.5,20.00,114.921825,25.828207
B0FFIMMVUJ,肯德基(章江店),小吃店,餐饮服务;餐饮相关场所;餐饮相关,章贡新区琴江路与长岗路交汇处达芬奇国际中心一楼肯德基餐厅,"114.929948,25.823366",江西省,赣州市,章贡区,0797-5167616,[],4.5,39.00,114.929948,25.823366
B0FFKGVXFL,罗罐中米粉(大学城文化广场店),小吃店,餐饮服务;快餐厅;快餐厅,蟠龙镇赣南大学城文化广场5号楼301,"114.891737,25.797699",江西省,赣州市,章贡区,17779718080,[],4.1,18.00,114.891737,25.797699
B0FFGHKRHQ,广昌肉丸,小吃店,餐饮服务;餐饮相关场所;餐饮相关,健康路34号,"114.944726,25.850247",江西省,赣州市,章贡区,15979797523,红旗大道,4.3,15.00,114.944726,25.850247
B0GU5YTVO0,瑞金牛肉汤(赣南总店),小吃店,餐饮服务;中餐厅;中餐厅,水南镇章江南大道博德山庄33号,"114.923574,25.839330",江西省,赣州市,章贡区,15970164339;18162169889,客家大道,4.4,56.00,114.923574,25.83933
B0LAYL0PAN,虎头炸·潮汕南乳炸鸡(泽丰环球汇店),小吃店,餐饮服务;快餐厅;快餐厅,泽丰环球汇一层GC006场地,"114.946119,25.820457",江西省,赣州市,章贡区,13517070214,[],4.0,14.00,114.946119,25.820457
B0J6ABVRIL,塔斯汀中国汉堡(九方店),小吃店,餐饮服务;快餐厅;快餐厅,长征大道东侧北端丰德园小区B栋35号门面,"114.936709,25.834321",江西省,赣州市,章贡区,19079714740,瑞金路,4.4,16.00,114.936709,25.834321
B0G2ZHGDZ8,懂汤(赣州万象城店),小吃店,餐饮服务;餐饮相关场所;餐饮相关,琴江路5-175号华润幸福汇27栋4号,"114.927792,25.816594",江西省,赣州市,章贡区,19179020670,[],4.3,41.00,114.927792,25.816594
B0HRGK7CCO,开春传统早餐(赞贤路店),小吃店,餐饮服务;快餐厅;快餐厅,水南镇赞贤路30号嘉逸花苑,"114.929175,25.832842",江西省,赣州市,章贡区,17707975977;17779798505,客家大道,4.5,18.00,114.929175,25.832842
B0LRDR70RD,洪都大拇指(巨亿万达店),小吃店,餐饮服务;快餐厅;快餐厅,八一四大道39号巨亿赣南电商城一期、东区地下室超市B1-C13A,"114.957756,25.832808",江西省,赣州市,章贡区,18518181389,八一四大道,4.4,15.00,114.957756,25.832808
B0FFG8W9F8,肯德基(赣州登峰大道店),小吃店,餐饮服务;快餐厅;肯德基,华润中心万象城B02号商铺,"114.924979,25.816113",江西省,赣州市,章贡区,0797-5169890,[],4.5,[],114.924979,25.816113
B0LAVHYYZ9,不可炸鸡(赣州店),小吃店,餐饮服务;快餐厅;快餐厅,翠微路1号赣州中航城3栋1-10号店面,"114.937155,25.835543",江西省,赣州市,章贡区,18770767709,瑞金路,4.4,20.00,114.937155,25.835543
B0LB3M90JC,虎头炸·潮汕南乳炸鸡(经开万达店),小吃店,餐饮服务;快餐厅;快餐厅,经开万达1145号店铺,"114.901325,25.842075",江西省,赣州市,章贡区,17870478386,[],4.5,18.00,114.901325,25.842075
B0J1HUDYLM,焖小二·豆花牛蛙(步步高店),小吃店,餐饮服务;中餐厅;中餐厅,红旗大道33号步步高·新天地 赣州店F8层,"114.940566,25.848575",江西省,赣州市,章贡区,18046677992,文明大道,4.2,54.00,114.940566,25.848575
B031D03SH6,华莱士·全鸡汉堡(环城路店),小吃店,餐饮服务;快餐厅;快餐厅,环城路22-14号(赣七中斜对面),"114.935354,25.854753",江西省,赣州市,章贡区,0797-8212380,环城路,4.4,17.00,114.935354,25.854753
B0LD7SY8E5,小鱼号酸菜鱼(赣州大学城店),小吃店,餐饮服务;中餐厅;四川菜(川菜),蓉江新区高校园区赣南大学城文化广场4号楼3层307、311号商铺,"114.892485,25.798071",江西省,赣州市,章贡区,19379550209,[],4.5,24.00,114.892485,25.798071
B0H195KYC0,罗记沙嗲面(中海国际社区锦园店),小吃店,餐饮服务;中餐厅;中餐厅,五指峰路中海国际社区锦园B7号商铺,"114.921683,25.827621",江西省,赣州市,章贡区,15779733718,[],4.2,28.00,114.921683,25.827621
B0J6GMH08I,周真真南昌粉面(赣州中央城店),小吃店,餐饮服务;中餐厅;中餐厅,绵江路21号赣州中央城7号楼1-12号商铺,"114.916162,25.814393",江西省,赣州市,章贡区,19970175059,[],4.3,16.00,114.916162,25.814393
B0IDGSQKNH,塔斯汀中国汉堡(福缘小区店),小吃店,餐饮服务;快餐厅;快餐厅,水南镇福缘小区15号店铺,"114.928323,25.803894",江西省,赣州市,章贡区,19379774644,[],4.7,22.00,114.928323,25.803894
B0J1M9VHT3,袁记云饺(赣州市章贡区青年路店),小吃店,餐饮服务;中餐厅;特色/地方风味餐厅,青年路17号,"114.935164,25.855322",江西省,赣州市,章贡区,19170178302,理工,4.5,21.00,114.935164,25.855322
B0GK3MSNK7,塔斯汀中国汉堡(万象城店),小吃店,餐饮服务;快餐厅;快餐厅,章江新区万象城外挂铺33号,"114.926006,25.816010",江西省,赣州市,章贡区,18813480131,[],4.4,19.00,114.926006,25.81601
B0IA7HAH3F,塔斯汀中国汉堡(华坚南路店),小吃店,餐饮服务;快餐厅;快餐厅,章贡区经济开发区华坚路中段第一层南面第二间,"114.896451,25.844705",江西省,赣州市,章贡区,19379770141,华坚路,4.6,18.00,114.896451,25.844705
B0FFI7632Q,德克士(万象国际店),小吃店,餐饮服务;快餐厅;快餐厅,八一四大道15号万象国际广场一楼,"114.957449,25.845600",江西省,赣州市,章贡区,0797-5551900,八一四大道,4.3,33.00,114.957449,25.8456
B0LDU6A4WB,必胜客(赣州巨亿万达广场店),小吃店,餐饮服务;快餐厅;快餐厅,八一四大道39号万达广场赣州巨亿店F1层,"114.957464,25.831948",江西省,赣州市,章贡区,19070421565,八一四大道,4.4,42.00,114.957464,25.831948
B0GDRCBAZZ,德克士(杉杉奥特莱斯广场·赣州店),小吃店,餐饮服务;快餐厅;快餐厅,沙石镇和谐大道18号(杉杉奥特莱斯广场6号门),"114.945285,25.803198",江西省,赣州市,章贡区,13667061460,[],4.6,27.00,114.945285,25.803198
B031D0R5C6,肯德基(赣州西门店),小吃店,餐饮服务;快餐厅;肯德基,红旗大道94号国际时代广场大润发商场一层,"114.922639,25.853745",江西省,赣州市,章贡区,0797-5558936,红旗大道,4.4,[],114.922639,25.853745
B0KDUNTORN,步步高麦当劳餐厅(赣州步步高·新天地 店),小吃店,餐饮服务;快餐厅;麦当劳,红旗大道33号步步高·新天地 赣州店F1层,"114.940706,25.848598",江西省,赣州市,章贡区,[],营角上,4.4,24.00,114.940706,25.848598
B0I23H0FG8,塔斯汀中国汉堡(赣州大学城店),小吃店,餐饮服务;快餐厅;快餐厅,赣南大学城文化广场7号楼一层128-129号店铺,"114.893493,25.797871",江西省,赣州市,章贡区,19079757744,[],4.2,13.00,114.893493,25.797871
B031D0QUXV,肯德基(翠微路店),小吃店,餐饮服务;快餐厅;肯德基,招商花园城一楼,"114.937024,25.835996",江西省,赣州市,章贡区,0797-8195673,瑞金路,4.5,32.00,114.937024,25.835996
B0FFIQUHJ6,肯德基(赣南大学城店),小吃店,餐饮服务;餐饮相关场所;餐饮相关,赣南文化广场一层肯德基,"114.891233,25.798086",江西省,赣州市,章贡区,0797-5560966,[],4.5,[],114.891233,25.798086
B0I33ZPH4E,肯德基(赣州经开万达店),小吃店,餐饮服务;快餐厅;肯德基,东江源大道与金岭大道交叉口西北100米,"114.901682,25.842122",江西省,赣州市,章贡区,0797-8069520,[],4.5,32.00,114.901682,25.842122
B0IUZA3T25,塔斯汀中国汉堡(丰德园店),小吃店,餐饮服务;快餐厅;快餐厅,厚德路32-45号门面,"114.950638,25.854690",江西省,赣州市,章贡区,18970780633,红旗大道,4.4,20.00,114.950638,25.85469
B0J3YUAZZQ,塔斯汀中国汉堡(香溢华府店),小吃店,餐饮服务;餐饮相关场所;餐饮相关,章贡区经开区香溢华府4栋楼2号3号商铺,"114.902872,25.866684",江西省,赣州市,章贡区,19917173050,[],4.6,17.00,114.902872,25.866684
B0JD9542TD,塔斯汀中国汉堡(杨梅新村店),小吃店,餐饮服务;快餐厅;快餐厅,章贡区经开区杨梅新村A25栋45号门面,"114.898585,25.858304",江西省,赣州市,章贡区,19179787991,[],4.3,18.00,114.898585,25.858304
B0LAXD30O8,贝西姆流芯披萨(嘉福万达一期店),小吃店,购物服务;购物相关场所;购物相关场所,经济技术开发区嘉福万达广场11号楼12号13号商业,"114.899045,25.841931",江西省,赣州市,章贡区,19917194144,华坚路,4.3,41.00,114.899045,25.841931
B0LB7CFC2D,牛约堡-手作牛肉汉堡(瑞恒家园店),小吃店,餐饮服务;快餐厅;快餐厅,瑞恒家园西南门门口乐豆家隔壁,"114.933438,25.814068",江西省,赣州市,章贡区,18720600221,[],4.5,22.00,114.933438,25.814068
B0K2OU56IZ,塔斯汀中国汉堡(富苑小区店),小吃店,餐饮服务;快餐厅;快餐厅,章江路12号富苑小区8号楼9-10号商铺,"114.927026,25.822321",江西省,赣州市,章贡区,15374378230,[],4.6,15.00,114.927026,25.822321
B0FFJ16GWQ,肯德基(巨亿广场店),小吃店,餐饮服务;餐饮相关场所;餐饮相关,八一四大道站北区A-03-03地块巨亿赣南电商城一层,"114.956740,25.831898",江西省,赣州市,章贡区,0797-5560896,八一四大道,4.2,61.00,114.95674,25.831898
B0L6XON7EE,肯德基(君尚购物中心赣州店),小吃店,餐饮服务;快餐厅;肯德基,君尚购物中心赣州店,"114.933143,25.817359",江西省,赣州市,章贡区,[],[],4.5,39.00,114.933143,25.817359
B0KKYAALJI,塔斯汀中国汉堡(南门口店),小吃店,餐饮服务;快餐厅;快餐厅,红旗大道南门口南门Q-patk购物中心L1层005号铺位,"114.938626,25.847988",江西省,赣州市,章贡区,15374372903,营角上,4.6,23.00,114.938626,25.847988
B0IKUCDJ2D,塔斯汀中国汉堡(张家围店),小吃店,餐饮服务;餐饮相关场所;餐饮相关,张家围路38号富安楼9-10号店铺,"114.951134,25.841054",江西省,赣州市,章贡区,19147050254,[],4.2,17.00,114.951134,25.841054
B0FFFF490L,江山美食(1号总店),小吃店,餐饮服务;中餐厅;中餐厅,瑞安家园1区南1门旁,"114.937516,25.822571",江西省,赣州市,章贡区,18907975533;18979750499,[],4.5,18.00,114.937516,25.822571
B031D0R5AW,于振华美食,小吃店,餐饮服务;中餐厅;中餐厅,逸豪大道1-5,"114.958212,25.822857",江西省,赣州市,章贡区,13033238199;18779020170,沙河,4.4,19.00,114.958212,25.822857
B0GR5A1HHL,周真真粉面馆(国际时代店),小吃店,购物服务;专卖店;珠宝首饰工艺品,红旗大道94号国际时代广场5-7号楼34号商店,"114.921379,25.855445",江西省,赣州市,章贡区,18170491006;18270972007,红旗大道,4.5,23.00,114.921379,25.855445
B0G1PDM3H6,万方圆拌粉瓦罐汤(瑞安家园店),小吃店,餐饮服务;中餐厅;中餐厅,水南镇宁都路16-21号,"114.939643,25.823933",江西省,赣州市,章贡区,15070785551,[],4.3,13.00,114.939643,25.823933
B0HDH6C40M,新人民食堂,小吃店,餐饮服务;餐饮相关场所;餐饮相关,文明大道宋城1号,"114.953720,25.845228",江西省,赣州市,章贡区,13803587568,文明大道,4.5,44.00,114.95372,25.845228
B0FFKPZ9GF,兴国米粉菜(阳光·龙都嘉苑B区店),小吃店,餐饮服务;中餐厅;中餐厅,阳光·龙都嘉苑B区西1门旁,"114.960926,25.838780",江西省,赣州市,章贡区,13970790589,[],4.6,33.00,114.960926,25.83878
B0HA3533G0,河南羊汤烩面-涛哥,小吃店,餐饮服务;中餐厅;中餐厅,八一四道65号欧曼酒店一楼,"114.956333,25.830244",江西省,赣州市,章贡区,18779065188,八一四大道,4.5,28.00,114.956333,25.830244
B0FFIZJIKP,华莱士·全鸡汉堡(黄金时代),小吃店,餐饮服务;快餐厅;快餐厅|餐饮服务;冷饮店;冷饮店,赞贤路13号华城文远阁A栋店面1号,"114.928528,25.832333",江西省,赣州市,章贡区,4008226004,[],4.4,38.00,114.928528,25.832333
B0L6LXJ3S2,冒胖子市井火锅冒菜(富苑店),小吃店,餐饮服务;中餐厅;火锅店,五指峰路黄记全南猪血粉面馆,"114.925634,25.822598",江西省,赣州市,章贡区,13330146737,[],4.4,23.00,114.925634,25.822598
B0J356T1JP,陕味食族油泼面(赣州步步高),小吃店,餐饮服务;中餐厅;中餐厅,红旗大道33号步步高新天地7楼7015-7016,"114.940719,25.848486",江西省,赣州市,章贡区,19170771690,文明大道,4.3,[],114.940719,25.848486
B0FFKJE5CR,十年炸串(环城路店),小吃店,餐饮服务;餐饮相关场所;餐饮相关,环城路26号,"114.935740,25.855954",江西省,赣州市,章贡区,15717970604;18296162860,红旗大道,4.1,19.00,114.93574,25.855954
B0FFFDSXF4,四星望月(中联商城店),小吃店,餐饮服务;中餐厅;中餐厅|风景名胜;风景名胜相关;旅游景点,文清路8-G栋13号,"114.941011,25.852419",江西省,赣州市,章贡区,0797-5551882;15807077203,文清路,4.5,[],114.941011,25.852419
B0K39CDZP8,合德记顺德双皮奶(赣州万象城店),小吃店,餐饮服务;冷饮店;冷饮店,水南街道三百山路18号天韵雅苑2号楼4-2店铺,"114.930616,25.810754",江西省,赣州市,章贡区,18370496124;18870775475,[],4.4,17.00,114.930616,25.810754
B0FFHRC0S6,开春传统早餐肠粉店,小吃店,餐饮服务;中餐厅;中餐厅,章江北大道140-56春江花月B区25栋6号店面,"114.925735,25.859296",江西省,赣州市,章贡区,17707975977,三康庙,4.5,12.00,114.925735,25.859296
B0JDFMQXYH,蒙自源(赣州万象城店),小吃店,餐饮服务;中餐厅;中餐厅,章江新区新赣州大道8号华润中心幸福汇商业A座17,"114.926563,25.815885",江西省,赣州市,章贡区,19970930060,[],4.2,17.00,114.926563,25.815885
B0K2BR9E6I,黑粉你肥牛火锅粉(赣州大学城店),小吃店,餐饮服务;中餐厅;火锅店,赣南大学城文化广场6栋3楼321号,"114.893300,25.797814",江西省,赣州市,章贡区,19169437710,[],4.1,18.00,114.8933,25.797814
B0L6474OV7,朴大叔拌饭(君尚购物中心店),小吃店,餐饮服务;餐饮相关场所;餐饮相关,君尚购物中心商场L4楼4016铺,"114.932726,25.816747",江西省,赣州市,章贡区,[],[],4.0,24.00,114.932726,25.816747
B0FFHLBBQ9,正宗镇江鸭血粉丝汤(赣州万象城店),小吃店,餐饮服务;餐饮相关场所;餐饮相关,万象城华润大厦C座107号,"114.927297,25.815610",江西省,赣州市,章贡区,13667045799;18870796648,[],4.4,20.00,114.927297,25.81561
B0J0NCEV0E,食蜀记霸道牛肉面(紫荆花园店),小吃店,餐饮服务;中餐厅;中餐厅,营角上11号紫荆花园,"114.940836,25.846867",江西省,赣州市,章贡区,18279760238,东阳山路,4.5,15.00,114.940836,25.846867
B0FFGKQI04,张记老字号洪善土豆卷,小吃店,餐饮服务;餐饮相关场所;餐饮相关,人民巷37号,"114.938734,25.852757",江西省,赣州市,章贡区,13907976792;15970081893,红旗大道,4.2,5.00,114.938734,25.852757
B0FFFFE5NT,巧燕美食(南河路16号大院店),小吃店,餐饮服务;中餐厅;中餐厅,南河路16号(大码头社区旁),"114.934855,25.845625",江西省,赣州市,章贡区,13698472113;18779098604,东阳山路,4.4,16.00,114.934855,25.845625
B0HRO7N7SQ,特色鱼羹肉燕(小南门店),小吃店,餐饮服务;中餐厅;中餐厅,街道章贡区小南门2一8号店面,"114.948109,25.853934",江西省,赣州市,章贡区,18146683011,红旗大道,4.6,10.00,114.948109,25.853934
B0HRO7N7SQ,特色鱼羹肉燕(小南门店),小吃店,餐饮服务;中餐厅;中餐厅,街道章贡区小南门2一8号店面,"114.948109,25.853934",江西省,赣州市,章贡区,18146683011,红旗大道,4.6,10.00,114.948109,25.853934
B0FFL3LW3I,好好吃鸭(万象城店),小吃店,餐饮服务;餐饮相关场所;餐饮相关,万象城B门旁B1-17号,"114.926555,25.815561",江西省,赣州市,章贡区,13479919373,[],4.0,25.00,114.926555,25.815561
B031D006QC,老扁大排档,小吃店,餐饮服务;中餐厅;中餐厅,建国路8-6号江南宋城历史文化旅游区(东南角),"114.943359,25.866327",江西省,赣州市,章贡区,13870701574,[],4.4,50.00,114.943359,25.866327
B0FFGZWML0,瑞金烂厅下牛肉汤,小吃店,餐饮服务;中餐厅;中餐厅,水游城东方童画隔壁,"114.929800,25.812750",江西省,赣州市,章贡区,15083907392;18270792675,[],4.3,8.00,114.9298,25.81275
B0FFGAZO4E,西安面馆,小吃店,餐饮服务;中餐厅;中餐厅,环城路吉祥花园二期63-20,"114.936325,25.857094",江西省,赣州市,章贡区,18870885701,文清路,4.5,13.00,114.936325,25.857094
B0FFFQ29DS,祺桂一心碗碗香麻辣烫(黄金时代店),小吃店,餐饮服务;中餐厅;火锅店,梅州路11号黄金时代四期37栋5号店铺,"114.929054,25.831688",江西省,赣州市,章贡区,18296691980,[],4.1,19.00,114.929054,25.831688
B0K21UUY9C,螺小丰柳州螺蛳粉(赣州店),小吃店,餐饮服务;餐饮相关场所;餐饮相关,会昌路8-1号,"114.941835,25.822494",江西省,赣州市,章贡区,13680278581,[],4.3,[],114.941835,25.822494
B0FFG81U1Z,汉中凉皮卷饼王(九方店),小吃店,餐饮服务;餐饮相关场所;餐饮相关,水南镇赞贤路8-59号,"114.936923,25.834062",江西省,赣州市,章贡区,15007077907,瑞金路,4.4,17.00,114.936923,25.834062
B0KK1CN0GH,谢记大树拌饭(娱乐城店),小吃店,餐饮服务;中餐厅;中餐厅,[],"114.946834,25.827513",江西省,赣州市,章贡区,19914702925,瑞金路,4.3,22.00,114.946834,25.827513
B0FFIK9BDU,江山美食(达芬奇店),小吃店,餐饮服务;中餐厅;中餐厅,长岗路13号达芬奇国际中心F1层,"114.930505,25.824340",江西省,赣州市,章贡区,15779769770;18279723137,[],4.3,14.00,114.930505,25.82434
B0FFFVAM7L,正宗过桥米线,小吃店,餐饮服务;中餐厅;中餐厅,红环路7店面,"114.933967,25.852056",江西省,赣州市,章贡区,13970781740,理工,4.3,14.00,114.933967,25.852056
B0LGPAKM5U,遇见首尔韩式炸鸡(赣州店),小吃店,餐饮服务;餐饮相关场所;餐饮相关,琴江路3号第五大道一期洛克广场AB座9商铺,"114.929604,25.819461",江西省,赣州市,章贡区,14779758463;18379794366,[],4.0,21.00,114.929604,25.819461
B0FFFT5JV1,芳记石城水饺,小吃店,餐饮服务;中餐厅;特色/地方风味餐厅,忠诚府街14号,"114.923977,25.845735",江西省,赣州市,章贡区,13576798870,章江北,4.5,27.00,114.923977,25.845735
B0KK7XO3PO,正谈炸鸡(赣州万象城店),小吃店,餐饮服务;餐饮相关场所;餐饮相关,新赣州大道8号赣州万象城b1,"114.925435,25.815944",江西省,赣州市,章贡区,[],[],4.4,34.00,114.925435,25.815944
B0LGXA8LOH,深夜包子(达芬奇店),小吃店,餐饮服务;餐饮相关场所;餐饮相关,长冈路9-27号,"114.929954,25.824559",江西省,赣州市,章贡区,13125399886,[],4.7,26.00,114.929954,25.824559
B0IBM5YIAH,小鱼号酸菜鱼(章贡环城路店),小吃店,餐饮服务;中餐厅;四川菜(川菜),环城路58号1栋16号店面,"114.935305,25.855309",江西省,赣州市,章贡区,17879766286,红旗大道,4.4,28.00,114.935305,25.855309
B0LA5LV4DY,小鱼号酸菜鱼(章贡杨坑店),小吃店,餐饮服务;中餐厅;四川菜(川菜),赣州经济技术开发区工业三路东侧迎后大道南侧锦绣新天地27号楼4号商铺,"114.863151,25.843949",江西省,赣州市,章贡区,19979793707,[],4.5,27.00,114.863151,25.843949
B0K2FUHEUM,遇见锅物麻辣烫/麻辣香锅(步步高店),小吃店,餐饮服务;中餐厅;中餐厅,南门口步步高商场负一楼国光超市入口对面遇见锅物麻辣烫,"114.940732,25.848546",江西省,赣州市,章贡区,15807073411,营角上,4.0,17.00,114.940732,25.848546
B0FFF6V445,良发烫皮(滨江东苑店),小吃店,餐饮服务;中餐厅;中餐厅,江湾花园西南门西北70米,"114.938790,25.843238",江西省,赣州市,章贡区,15307076422;15970012949,营角上,4.4,11.00,114.93879,25.843238
B0HUL55DJ8,潮味馆潮汕海鲜砂锅粥(南桥新村店),小吃店,餐饮服务;中餐厅;中餐厅,水南镇南桥新村西二区61号,"114.944122,25.823902",江西省,赣州市,章贡区,17770788233,瑞金路,4.6,38.00,114.944122,25.823902
B0I1UZ046R,珍小七现切猪杂粥(南桥新村西三区店),小吃店,餐饮服务;中餐厅;中餐厅,南桥新村西三区19号,"114.944208,25.825473",江西省,赣州市,章贡区,13632658119,瑞金路,4.6,41.00,114.944208,25.825473
B0HUFZX9TA,合丫头手工小吃(瑞平小区店),小吃店,餐饮服务;餐饮相关场所;餐饮相关,锦绣虔城南门西南50米,"114.942655,25.823656",江西省,赣州市,章贡区,0797-8488855,[],4.2,35.00,114.942655,25.823656
B0FFH3LODO,必旺客中式快餐连锁(梅关大道店),小吃店,餐饮服务;快餐厅;快餐厅,嘉福尚江尊品8栋13号,"114.944078,25.810552",江西省,赣州市,章贡区,0797-8306888;13247772937,[],4.3,20.00,114.944078,25.810552
B0K04OTF94,李不贵螺蛳麻辣烫,小吃店,餐饮服务;中餐厅;中餐厅,三百山路美地亚天俊,"114.929954,25.812586",江西省,赣州市,章贡区,15350375533,[],4.3,18.00,114.929954,25.812586
B0FFGZWLTP,大余烫皮店(梅州路店),小吃店,餐饮服务;中餐厅;中餐厅,梅州路6号富地中心9栋4号,"114.930546,25.829580",江西省,赣州市,章贡区,13532528554;15270780122,[],4.5,21.00,114.930546,25.82958
B0KAMM18IG,杏子姐姐家D美食,小吃店,餐饮服务;餐饮相关场所;餐饮相关,钨都大道2-102号,"114.925721,25.834808",江西省,赣州市,章贡区,13755818166,客家大道,4.5,[],114.925721,25.834808
B0KK7N6TD0,肯德基(东阳山路店),小吃店,餐饮服务;快餐厅;肯德基,东阳山路与温州街交叉口东100米,"114.938949,25.848340",江西省,赣州市,章贡区,[],东阳山路,4.2,25.00,114.938949,25.84834
B0FFG406OU,曾记台湾无骨香鸡柳(七中总店),小吃店,餐饮服务;餐饮相关场所;餐饮相关,南外街道环城路20号,"114.935265,25.854470",江西省,赣州市,章贡区,13607978406;15179055561,理工,3.9,20.00,114.935265,25.85447
B0KKBLTEDT,Pico Pizza(披蔻披萨),小吃店,餐饮服务;快餐厅;快餐厅,琴江路3号第五大道负一楼,"114.926507,25.819437",江西省,赣州市,章贡区,15297721680,[],4.2,41.00,114.926507,25.819437
B0FFHME8KV,过桥米线豆浆油条,小吃店,餐饮服务;中餐厅;综合酒楼,厚德路39-18号,"114.949800,25.854345",江西省,赣州市,章贡区,15083905981,红旗大道,4.2,10.00,114.9498,25.854345
B0JAHLHMVA,HOOTGIRL韩式炸鸡(华坚店),小吃店,餐饮服务;餐饮相关场所;餐饮相关,大坪金康苑东门南60米,"114.893059,25.841122",江西省,赣州市,章贡区,19979720369,[],4.5,22.00,114.893059,25.841122
B0JGXSYPS4,肯德基(赣州杉杉奥莱店),小吃店,餐饮服务;快餐厅;肯德基,和谐大道18号赣州杉杉奥特莱斯购物广场一层A123-2号商铺,"114.945725,25.802775",江西省,赣州市,章贡区,0797-8069500,[],4.3,30.00,114.945725,25.802775
B031D0Q35M,思源面馆(青年路店),小吃店,餐饮服务;中餐厅;中餐厅,环城路26号,"114.935719,25.855818",江西省,赣州市,章贡区,0797-8261917,红旗大道,4.4,13.00,114.935719,25.855818
B0L6BUZ1TE,张拉拉兰州手撕牛肉面(君尚购物中心赣州店),小吃店,餐饮服务;中餐厅;清真菜馆,君尚购物中心赣州店B1层1013,"114.932728,25.816780",江西省,赣州市,章贡区,13197972024,[],3.9,25.00,114.932728,25.81678
B0FFG8YSK5,桂柳源螺蛳粉(高校服务区二期店),小吃店,餐饮服务;中餐厅;中餐厅,赣南师范大学黄金校区南门对面,"114.887778,25.789952",江西省,赣州市,章贡区,18179073723;18777175745,[],4.5,13.00,114.887778,25.789952
B0JKS5YSM5,袁记云饺(赣州市章贡区招商花园城店),小吃店,餐饮服务;中餐厅;特色/地方风味餐厅,江西省赣州市章贡区翠微路中航城小吃街A005店铺,"114.937082,25.835091",江西省,赣州市,章贡区,18679792193,瑞金路,4.2,14.00,114.937082,25.835091
B0J0DCRNV0,袁记云饺(宝能城),小吃店,餐饮服务;中餐厅;特色/地方风味餐厅,安远路南桥新村西一区12号店面,"114.944805,25.822441",江西省,赣州市,章贡区,13732966109,[],4.5,10.00,114.944805,25.822441
B0GKJCYUS7,陕西扯面(漫乐城店),小吃店,餐饮服务;快餐厅;快餐厅,张家围路58号,"114.950865,25.840743",江西省,赣州市,章贡区,15970080484;19979819686,[],4.3,17.00,114.950865,25.840743
B0G21D83PG,陕西面馆万象城店,小吃店,餐饮服务;中餐厅;中餐厅,新赣州大道8号幸福汇商业街A座21号,"114.926902,25.815815",江西省,赣州市,章贡区,15297880594,[],4.2,10.00,114.926902,25.815815
B0K329CKHY,鸡柳大人,小吃店,餐饮服务;快餐厅;快餐厅,华润大厦B座底商B-114号鸡柳大人,"114.926565,25.816326",江西省,赣州市,章贡区,13479912040,[],4.2,11.00,114.926565,25.816326
B0GKDSREKK,DQ·蛋糕·冰淇淋(赣州万象城店),甜品店,餐饮服务;糕饼店;糕饼店,新赣州大道8号华润中心万象城1层L0120号商铺DQ(B门通道中),"114.926113,25.814972",江西省,赣州市,章贡区,19917179267;4009951877,[],4.4,20.00,114.926113,25.814972
B0FFGBKNTZ,哈根达斯(赣州万象城店),甜品店,餐饮服务;冷饮店;冷饮店,登峰大道和新赣州大道的交汇处华润中心万象城1层,"114.925083,25.816015",江西省,赣州市,章贡区,0797-5169715;0797-5169717,[],4.7,65.00,114.925083,25.816015
B0JKJHHX7W,江南宋糕(恒瑞·第5大道店),甜品店,餐饮服务;糕饼店;糕饼店,琴江路6号第五大道二期3栋1-48江南宋糕,"114.927037,25.819836",江西省,赣州市,章贡区,19196758589,[],4.4,22.00,114.927037,25.819836
B0H32U5U91,JIOJIO啾啾甜品·蛋糕·咖啡,甜品店,餐饮服务;咖啡厅;咖啡厅|购物服务;购物相关场所;购物相关场所,于都路17-2号(文清路小学豪德校区正对面),"114.940926,25.825208",江西省,赣州市,章贡区,18579708570;18720791096,[],4.5,27.00,114.940926,25.825208
B0K1O9U4VS,糖叙(赣州万象城店),甜品店,餐饮服务;中餐厅;中餐厅|餐饮服务;冷饮店;冷饮店,新赣州大道8号赣州万象城,"114.926485,25.815552",江西省,赣州市,章贡区,19170789758,[],4.3,24.00,114.926485,25.815552
B0FFFA0BQS,食铭双皮奶(小南门店),甜品店,餐饮服务;甜品店;甜品店|餐饮服务;冷饮店;冷饮店,小南门与厚德路交叉口南60米,"114.948069,25.853677",江西省,赣州市,章贡区,13607979522,红旗大道,4.3,11.00,114.948069,25.853677
B0FFFT8O2D,DQ(赣州招商花园城店),甜品店,餐饮服务;冷饮店;冷饮店|餐饮服务;糕饼店;糕饼店,长征大道九方购物中心1楼,"114.935595,25.836264",江西省,赣州市,章贡区,0797-8401341;13870711068;4009951877,瑞金路,4.4,25.00,114.935595,25.836264
B0FFFE7DB7,鸡仔甜点(厚德店),甜品店,餐饮服务;甜品店;甜品店|餐饮服务;休闲餐饮场所;休闲餐饮场所,赣江街道厚德路51-7号,"114.948334,25.854140",江西省,赣州市,章贡区,18870102936,红旗大道,4.4,10.00,114.948334,25.85414
B0K0ALNWEG,奈雪的茶(赣州润达南门Q-PARK店),甜品店,餐饮服务;冷饮店;冷饮店,南门广场润达南门Q-park1-26.27号铺,"114.938270,25.848194",江西省,赣州市,章贡区,13879750102,营角上,4.2,18.00,114.93827,25.848194
B0FFKXUU6O,CoCo都可(大学城店),甜品店,餐饮服务;冷饮店;冷饮店,蓉江二路与创新二路交汇处东南侧赣南大学城文化广场4栋211-212号商铺,"114.892485,25.798071",江西省,赣州市,章贡区,19136709525,[],4.2,12.00,114.892485,25.798071
B0K39CDZP8,合德记顺德双皮奶(赣州万象城店),甜品店,餐饮服务;冷饮店;冷饮店,水南街道三百山路18号天韵雅苑2号楼4-2店铺,"114.930616,25.810754",江西省,赣州市,章贡区,18370496124;18870775475,[],4.4,17.00,114.930616,25.810754
B0JU79ZE8Y,方禾手工吐司(万象店),甜品店,餐饮服务;甜品店;甜品店,三百山路公园壹号2号楼4号,"114.928842,25.813850",江西省,赣州市,章贡区,19870377488,[],4.2,29.00,114.928842,25.81385
B0LALLLLLS,清和豆花手作糖水铺,甜品店,餐饮服务;餐饮相关场所;餐饮相关,梅州路3-6号(黄金时代B区大门口),"114.930192,25.829652",江西省,赣州市,章贡区,[],[],4.2,16.00,114.930192,25.829652
B0IUOCAFT4,Sour Moon酸月亮,甜品店,餐饮服务;冷饮店;冷饮店,信丰路黄金福瑞小区2号楼8号店面,"114.913820,25.826428",江西省,赣州市,章贡区,13479947562,[],4.6,32.00,114.91382,25.826428
B0I6BAG96M,书亦烧仙草(赣州和乐新村店),甜品店,餐饮服务;冷饮店;冷饮店,东江源大道与枫坪路交叉口西南100米,"114.917480,25.930141",江西省,赣州市,章贡区,18296754300,[],4.3,11.00,114.91748,25.930141
B0LAVR7T7M,章贡区梨想蛋糕店,甜品店,餐饮服务;糕饼店;糕饼店,琴江路5号华润中心C1区12号楼15号幸福汇商铺,"114.928775,25.818425",江西省,赣州市,章贡区,19053120295,[],4.5,31.00,114.928775,25.818425
B0JK16J2RX,安迪烘焙·面包·甜品·蛋糕(星洲湾·九境店),甜品店,餐饮服务;糕饼店;糕饼店,水南路5号星洲湾·九境,"114.908265,25.821223",江西省,赣州市,章贡区,[],[],4.2,18.00,114.908265,25.821223
B0JD653P1N,波比艾斯(万象城店),甜品店,餐饮服务;冷饮店;冷饮店,万象城4楼冰场对面,"114.926455,25.814565",江西省,赣州市,章贡区,19107978282,[],3.9,12.00,114.926455,25.814565
B0G1LS62SA,甜芋手工甜点(公务员小区西区店),甜品店,餐饮服务;甜品店;甜品店|餐饮服务;糕饼店;糕饼店,公务员小区西区二期于都路10-91,"114.936940,25.826527",江西省,赣州市,章贡区,14796727195,[],4.2,17.00,114.93694,25.826527
B0K1ACTMBM,糖叙手作糖水铺(招商花园城店),甜品店,餐饮服务;餐饮相关场所;餐饮相关,翠微路1号赣州中航城3栋1-11号,"114.937158,25.835572",江西省,赣州市,章贡区,13710173676;18979722109,瑞金路,4.4,20.00,114.937158,25.835572
B0LGMXB18K,蜜雪冰城(蟠龙店),甜品店,餐饮服务;冷饮店;冷饮店,蟠龙镇河坝陈屋安居小区4栋6号店铺,"114.864417,25.827671",江西省,赣州市,章贡区,19070777132,[],4.3,9.00,114.864417,25.827671
B0KUVSTUSP,巷子客厅,甜品店,餐饮服务;咖啡厅;咖啡厅,红旗大道94号国际时代广场22栋18号(中国电信隔壁),"114.922244,25.856504",江西省,赣州市,章贡区,13217977113,章江北,4.2,29.00,114.922244,25.856504
B0LGBZX7EI,秋鲜晨·品质千层(经开店),甜品店,餐饮服务;餐饮相关场所;餐饮相关,金岭大道4号金龙花苑,"114.907792,25.840361",江西省,赣州市,章贡区,17870075157,金东路,4.4,35.00,114.907792,25.840361
B0I0LN5ZB9,波比艾斯(万达广场店),甜品店,餐饮服务;冷饮店;冷饮店,金岭大道与东江源大道辅路交叉口西北100米,"114.901133,25.840892",江西省,赣州市,章贡区,13576766259,[],4.1,11.00,114.901133,25.840892
B0K2J7T9A7,九份咖啡甜品,甜品店,餐饮服务;餐饮相关场所;餐饮相关,琴江路8号华润中心A区6号,"114.925175,25.817325",江西省,赣州市,章贡区,19196706357,[],4.1,30.00,114.925175,25.817325
B0LA6A7O41,糖叙糖水铺(赣州温馨家园店),甜品店,餐饮服务;冷饮店;冷饮店,新路村温馨家园悦园19号5号铺,"114.911320,25.779392",江西省,赣州市,章贡区,19196700910,[],4.3,19.00,114.91132,25.779392
B0LAA7DD4K,蜜雪冰城(华荣小区店),甜品店,餐饮服务;餐饮相关场所;餐饮相关,九曲河路华荣小区农贸市场一楼5号店面,"114.922367,25.804615",江西省,赣州市,章贡区,[],[],4.3,10.00,114.922367,25.804615
B0JB67KL4Z,PETIT FUN时尝(幸福里一期店),甜品店,餐饮服务;甜品店;甜品店,华润中心A区6栋8号幸福汇,"114.925133,25.817552",江西省,赣州市,章贡区,18607078883,[],4.1,[],114.925133,25.817552
B0J06GMAMF,简乐夕(恒大悦龙台A区),甜品店,餐饮服务;餐饮相关场所;餐饮相关,纬一路与经七路交叉口西120米,"114.896846,25.866277",江西省,赣州市,章贡区,17769606239,[],4.0,19.00,114.896846,25.866277
B0FFKS9GZG,悸动烧仙草(江西理工大学店),甜品店,餐饮服务;冷饮店;冷饮店,红旗大道86号江西理工大学校大门右侧四号店面,"114.927306,25.853104",江西省,赣州市,章贡区,15083900039,理工,4.3,15.00,114.927306,25.853104
B0LARZXZKI,禄茗广式茶点经开店,甜品店,餐饮服务;餐饮相关场所;餐饮相关,金星村金水路56号,"114.899132,25.834040",江西省,赣州市,章贡区,17322330740,[],4.3,16.00,114.899132,25.83404
B0L6M7XR1Y,糖叙糖水铺(君尚购物中心店),甜品店,餐饮服务;冷饮店;冷饮店,新赣州大道3号赣州君尚购物中心商场L4层4006铺,"114.932933,25.817033",江西省,赣州市,章贡区,19170409610,[],4.2,24.00,114.932933,25.817033
B0LGFCS4Z5,蜜雪冰城(金坪花园店),甜品店,餐饮服务;冷饮店;冷饮店,黄屋坪路39号永康锦园6号商铺,"114.946710,25.841500",江西省,赣州市,章贡区,13360003360,文明大道,4.4,10.00,114.94671,25.8415
B0K2ZC3OVX,拾光自助甜品·小食(赣州店),甜品店,餐饮服务;甜品店;甜品店,建国路与均井巷交叉口东南20米,"114.940084,25.863882",江西省,赣州市,章贡区,[],[],4.4,33.00,114.940084,25.863882
B0FFL7C8UE,贝甜私房烘焙(大学城店),甜品店,餐饮服务;餐饮相关场所;餐饮相关,蓉江新区高校园区赣南大学城文化广场6号楼三层307号商铺,"114.892723,25.797828",江西省,赣州市,章贡区,18279472486,[],4.1,21.00,114.892723,25.797828
B0KK5D7R16,树上·甜品,甜品店,餐饮服务;甜品店;甜品店,廉泉路22-1号,"114.921157,25.852667",江西省,赣州市,章贡区,15970110213,红旗大道,4.5,50.00,114.921157,25.852667
B0FFKTRNQJ,龙意烘焙蛋糕甜品店,甜品店,餐饮服务;糕饼店;糕饼店|餐饮服务;甜品店;甜品店,文武坝路9-4号,"114.942206,25.816465",江西省,赣州市,章贡区,17870088984,[],3.9,[],114.942206,25.816465
B0L6MUU1Z3,糖叙糖水铺(经开万达金街店),甜品店,餐饮服务;冷饮店;冷饮店,经济技术开发区金岭大道18号1-A-0040商铺,"114.900883,25.841932",江西省,赣州市,章贡区,19970911314,[],4.4,21.00,114.900883,25.841932
B0L6X5XW8L,蜜雪冰城(第五大道店),甜品店,餐饮服务;冷饮店;冷饮店,琴江路6号第五大道二期3号楼1-73商铺,"114.926179,25.817991",江西省,赣州市,章贡区,[],[],4.2,9.00,114.926179,25.817991
B0LD7HY1KE,椀甜糖水铺,甜品店,餐饮服务;冷饮店;冷饮店,天枢三号楼,"114.914088,25.811837",江西省,赣州市,章贡区,18679730353,[],4.0,10.00,114.914088,25.811837
B0K3HH3WDK,糖九妹,甜品店,餐饮服务;餐饮相关场所;餐饮相关,安远路9-28号,"114.947475,25.822974",江西省,赣州市,章贡区,[],[],4.1,16.00,114.947475,25.822974
B0LDV56FXY,赣州市章贡区甜乐颂甜品店,甜品店,餐饮服务;甜品店;甜品店,琴江路8号华润中心A区5号楼17幸福汇商铺,"114.925421,25.817971",江西省,赣州市,章贡区,15302950784,[],4.4,[],114.925421,25.817971
B0KKTCVHV8,糖叙糖水铺(老浮桥店),甜品店,餐饮服务;冷饮店;冷饮店,水东镇水东居委会居务监督委员会西侧50米,"114.953068,25.865382",江西省,赣州市,章贡区,19079902937,[],4.5,24.00,114.953068,25.865382
B0KGRB77K9,蜜雪冰城(和信广场店),甜品店,餐饮服务;冷饮店;冷饮店,森铁小区2栋3-4号铺,"114.907268,25.851439",江西省,赣州市,章贡区,15570087779,金东路,4.3,11.00,114.907268,25.851439
B0FFL0XMVJ,波比艾斯牛乳冰淇淋(步步高超市店),甜品店,餐饮服务;餐饮相关场所;餐饮相关,步步高新天地6楼,"114.940825,25.848625",江西省,赣州市,章贡区,13479901178,营角上,3.9,5.00,114.940825,25.848625
B0KR7ZJKYR,满满甜汤(黄金金翔小区店),甜品店,餐饮服务;餐饮相关场所;餐饮相关,信丰路33号全季酒店楼下,"114.918513,25.827913",江西省,赣州市,章贡区,[],[],4.0,15.00,114.918513,25.827913
B0LDKSMQJJ,满满甜汤(宝能世纪城店),甜品店,餐饮服务;餐饮相关场所;餐饮相关,安远路9号,"114.944932,25.821675",江西省,赣州市,章贡区,18000772078,[],3.9,14.00,114.944932,25.821675
B0KA95Q5T5,快乐番薯(万达广场店),甜品店,餐饮服务;冷饮店;冷饮店,经济开发区金岭大道路18号经开万达广场2号门口旁,"114.901819,25.841222",江西省,赣州市,章贡区,[],[],4.2,13.00,114.901819,25.841222
B0LRKCI9XR,糖叙(江南宋城店),甜品店,餐饮服务;冷饮店;冷饮店,郁孤台历史文化街区宋街3-1号商铺,"114.939060,25.865972",江西省,赣州市,章贡区,[],[],4.5,20.00,114.93906,25.865972
B0KK9ZNLT0,蜜雪冰城,甜品店,餐饮服务;冷饮店;冷饮店,创新路与东江源大道交叉口东北60米,"114.919805,25.929173",江西省,赣州市,章贡区,[],[],4.4,12.00,114.919805,25.929173
B0JAO7X59J,波比艾斯(招商花园城店),甜品店,餐饮服务;冷饮店;冷饮店,长征大道1号招商花园城4楼中庭,"114.936396,25.835713",江西省,赣州市,章贡区,13479901178,瑞金路,4.0,15.00,114.936396,25.835713
B0I17UQ3LO,AnCake·安果家私房蛋糕·甜品(赣南科技学院店),甜品店,餐饮服务;糕饼店;糕饼店,客家大道165-7号(赣南科技学院对面天桥下),"114.919698,25.834869",江西省,赣州市,章贡区,18270721704,客家大道,4.2,23.00,114.919698,25.834869
B0HAP5UNPC,一点甜蛋糕甜品,甜品店,餐饮服务;糕饼店;糕饼店,文明大道62-7号,"114.940250,25.845178",江西省,赣州市,章贡区,15297774620,营角上,3.8,27.00,114.94025,25.845178
B0KAVD5140,秋鲜晨·秋里甜品屋(赣坊店),甜品店,餐饮服务;甜品店;甜品店,红旗大道与红环南路交叉口西340米,"114.930159,25.850212",江西省,赣州市,章贡区,15507970206,文明大道,4.3,[],114.930159,25.850212
B0K23CRPRW,糖叙糖水铺(潭口店),甜品店,餐饮服务;餐饮相关场所;餐饮相关,朝阳路6号,"114.848468,25.742277",江西省,赣州市,章贡区,15507083753,[],4.5,21.00,114.848468,25.742277
B0K3CNZDTQ,蜜雪冰城(阳光·金色春城店),甜品店,餐饮服务;冷饮店;冷饮店,紫藤花路与潇雨路交叉口南40米,"114.883655,25.785269",江西省,赣州市,章贡区,[],[],4.2,10.00,114.883655,25.785269
B0K3LU5H4W,章贡区六花冰田甜品店,甜品店,餐饮服务;冷饮店;冷饮店,长征大道1号招商花园城(九方)4楼阿姆源门口,"114.936066,25.835893",江西省,赣州市,章贡区,14770926113,瑞金路,3.8,17.00,114.936066,25.835893
B0JAHU3F13,陈记水牛奶甜品世家(赣州店),甜品店,餐饮服务;甜品店;甜品店,关西围路南桥新村西二区8号,"114.946730,25.823303",江西省,赣州市,章贡区,15770969520;19870847706,瑞金路,4.2,9.00,114.94673,25.823303
B0IGPUJFA3,八喜冰淇淋蛋糕(赣州店),甜品店,餐饮服务;餐饮相关场所;餐饮相关,钨都大道2-86号1号,"114.924875,25.834623",江西省,赣州市,章贡区,17808888287;18379873323,客家大道,4.1,37.00,114.924875,25.834623
B0LBHSYVV6,开心糖水铺,甜品店,餐饮服务;餐饮相关场所;餐饮相关,金叶路汉泰上上城,"114.899202,25.826718",江西省,赣州市,章贡区,[],[],4.4,[],114.899202,25.826718
B0KK65A9QA,糖叙(杨坑店),甜品店,餐饮服务;冷饮店;冷饮店,经济技术开发区工业三路东侧迎宾大道南侧锦绣新天地26栋5号商铺,"114.862677,25.844229",江西省,赣州市,章贡区,18379845514,[],4.4,24.00,114.862677,25.844229
B0K3CCH6GF,蜜雪冰城(达芬奇国际中心店),甜品店,餐饮服务;冷饮店;冷饮店,达芬奇国际中心西北门东北50米,"114.930071,25.823967",江西省,赣州市,章贡区,15307977186,[],4.3,12.00,114.930071,25.823967
B0FFKS6NOH,云烘焙网红蛋糕甜品,甜品店,餐饮服务;糕饼店;糕饼店,幸福时光南1门旁,"114.904086,25.843048",江西省,赣州市,章贡区,15397974645,[],4.0,30.00,114.904086,25.843048
B0K66LVDJP,喜棠手作,甜品店,餐饮服务;甜品店;甜品店,章江街道三明路6-13号2号,"114.949275,25.823259",江西省,赣州市,章贡区,15879735166;17779766586,瑞金路,4.0,18.00,114.949275,25.823259
B0LULC8MVJ,赣州DQ冰淇淋生日蛋糕店,甜品店,餐饮服务;糕饼店;糕饼店,钨都大道毛家村2/86号,"114.925189,25.834410",江西省,赣州市,章贡区,18379873323,客家大道,3.9,[],114.925189,25.83441
B0KDJS1MS7,冰粉小铺(鹏欣·水游城店),甜品店,餐饮服务;餐饮相关场所;餐饮相关,新赣州大道蓉江路7-23,"114.930640,25.813973",江西省,赣州市,章贡区,18270752457,[],4.1,12.00,114.93064,25.813973
B0K1N5N87Y,蜜雪冰城(水碓店),甜品店,餐饮服务;冷饮店;冷饮店,金龙路水碓村24号店铺,"114.874552,25.851848",江西省,赣州市,章贡区,18720895955,[],4.1,9.00,114.874552,25.851848
B0LRAU05AL,糖叙糖水铺(巨亿万达店),甜品店,餐饮服务;冷饮店;冷饮店,万达广场(赣州巨亿店),"114.958831,25.831945",江西省,赣州市,章贡区,19323966664,八一四大道,4.1,17.00,114.958831,25.831945
B0LRCRGYYD,七月手作糖水,甜品店,餐饮服务;甜品店;甜品店,新赣州大道25号,"114.930061,25.816453",江西省,赣州市,章贡区,18377877775,[],4.2,14.00,114.930061,25.816453
B0LRZ72HWG,豆花妈妈(万象城店),甜品店,餐饮服务;中餐厅;中餐厅,鹏欣·水游城西门旁,"114.929221,25.813901",江西省,赣州市,章贡区,[],[],4.4,11.00,114.929221,25.813901
B0JASLE6G7,麦都烘焙·蛋糕·面包·甜品,甜品店,餐饮服务;糕饼店;糕饼店,宁都路19-101号,"114.940487,25.822377",江西省,赣州市,章贡区,18000777401,[],4.2,12.00,114.940487,25.822377
B0FFHGXIOM,多吉多冰淇淋,甜品店,餐饮服务;冷饮店;冷饮店,厚德路103-7号(正新鸡排旁),"114.940112,25.853805",江西省,赣州市,章贡区,15350276867;18970707598,文清路,3.8,14.00,114.940112,25.853805
B0LU4KSAIV,糖漫里手作糖水,甜品店,餐饮服务;餐饮相关场所;餐饮相关,上犹路福瑞小区4栋1-04商铺,"114.912271,25.826299",江西省,赣州市,章贡区,[],[],3.9,[],114.912271,25.826299
B0G3US0MT6,喜三德甜品(南河路店),甜品店,餐饮服务;甜品店;甜品店,南河路8-1号,"114.936140,25.847985",江西省,赣州市,章贡区,[],文明大道,4.1,17.00,114.93614,25.847985
B0IAPCS35S,轻茶里(沙石店),甜品店,餐饮服务;冷饮店;冷饮店,沙石镇峰山大道181号,"114.941676,25.781420",江西省,赣州市,章贡区,15979777798,[],4.0,16.00,114.941676,25.78142
B0L6KOLX6J,ROLLING BEANS手作瑞士卷(君尚购物中心赣州店),甜品店,餐饮服务;甜品店;甜品店,新赣州大道3号君尚购物中心赣州店B1-1031号,"114.933175,25.817575",江西省,赣州市,章贡区,[],[],3.8,42.00,114.933175,25.817575
B0LA3AESOZ,冰雪王后,甜品店,餐饮服务;冷饮店;冷饮店,八一四大道39号巨亿赣南电商城一期1号楼1-582号,"114.958687,25.832361",江西省,赣州市,章贡区,13576738827;19323920827,八一四大道,3.9,12.00,114.958687,25.832361
B0I1MLAUDU,甜品·鲜花(铁路三区店),甜品店,餐饮服务;甜品店;甜品店,赣江源大道6-36铁路三区大门口旁边,"114.959214,25.819061",江西省,赣州市,章贡区,18507978517;19870230018,沙河,3.7,34.00,114.959214,25.819061
B0H1NS8NV5,喜梵糖水(南桥新村东二区店),甜品店,餐饮服务;冷饮店;冷饮店,南桥新村东二区1号喜梵糖水,"114.949928,25.824660",江西省,赣州市,章贡区,13627072538;19079809508,瑞金路,3.9,8.00,114.949928,25.82466
B0LUN56NB8,糖忆栈手作糖水铺,甜品店,餐饮服务;餐饮相关场所;餐饮相关,瑞金路10号呈祥·中央首府1号楼6号商铺,"114.941995,25.829810",江西省,赣州市,章贡区,[],瑞金路,4.2,[],114.941995,25.82981
B0LAXS1E6F,王吃吃奶皮子手工酸奶酪,甜品店,餐饮服务;餐饮相关场所;餐饮相关,厚德路54-1号,"114.948732,25.854433",江西省,赣州市,章贡区,[],红旗大道,3.9,8.00,114.948732,25.854433
B0HGSX6DAP,来一份水果捞,甜品店,餐饮服务;甜品店;甜品店,小南门金大小南新村1栋8号店面,"114.948275,25.853599",江西省,赣州市,章贡区,15970140277;18270792564,红旗大道,4.0,20.00,114.948275,25.853599
B0LA3U8SAV,虔小冰雪糕批发批冰(安居店),甜品店,餐饮服务;冷饮店;冷饮店,客家大道16-30号,"114.930792,25.836978",江西省,赣州市,章贡区,19047736773,客家大道,4.0,16.00,114.930792,25.836978
B0K0LPLR87,糖乐糖水铺,甜品店,餐饮服务;甜品店;甜品店,西郊路98号14店,"114.926042,25.855768",江西省,赣州市,章贡区,15216126501,红旗大道,3.8,[],114.926042,25.855768
B0KD7LX1A0,宁姐手工糖水,甜品店,餐饮服务;甜品店;甜品店,新赣州大道8号华润中心B1区11-2幸福汇商铺,"114.926854,25.815559",江西省,赣州市,章贡区,[],[],3.8,[],114.926854,25.815559
B0LDYSXFX8,今喜糖水铺,甜品店,餐饮服务;甜品店;甜品店,万盛南街1-66号,"114.940393,25.826783",江西省,赣州市,章贡区,[],[],3.9,[],114.940393,25.826783
B0FFGCPPIC,蜜雪冰城,甜品店,餐饮服务;冷饮店;冷饮店,105国道米线姐旁,"114.892488,25.798074",江西省,赣州市,章贡区,[],[],3.9,10.00,114.892488,25.798074
B0K3TCTBK6,啡芙厅·Cake Shop,甜品店,餐饮服务;糕饼店;糕饼店,青年路44-7号,"114.929324,25.857190",江西省,赣州市,章贡区,15796194991,红旗大道,3.9,[],114.929324,25.85719
B0G1K52LRY,喜三德甜品(水南店),甜品店,餐饮服务;甜品店;甜品店,南桥新村西一区14号2店,"114.946040,25.822616",江西省,赣州市,章贡区,[],[],4.0,12.00,114.94604,25.822616
B0LUNA38KM,幸福西饼-生日蛋糕&甜品台(万象城店),甜品店,餐饮服务;餐饮相关场所;餐饮相关,新赣州大道7-128号,"114.931290,25.815336",江西省,赣州市,章贡区,[],[],3.7,[],114.93129,25.815336
B0KU67UL4N,雀巢冰淇淋,甜品店,餐饮服务;冷饮店;冷饮店,钨都大道与客家大道交叉口西南140米,"114.924953,25.834600",江西省,赣州市,章贡区,[],客家大道,3.9,29.00,114.924953,25.8346
B0I1XZQSLJ,喜三德甜品(经开店),甜品店,餐饮服务;甜品店;甜品店,杨梅新村B区20栋2号店-02,"114.900495,25.857290",江西省,赣州市,章贡区,[],[],4.0,17.00,114.900495,25.85729
B0LD1S3AL8,快乐番薯(赣州章贡青年职校店),甜品店,餐饮服务;冷饮店;冷饮店,湖边镇湖边路1号青年科技学校食堂,"114.914984,25.876757",江西省,赣州市,章贡区,17707970891,[],3.7,[],114.914984,25.876757
B0KU67UL4N,雀巢冰淇淋,甜品店,餐饮服务;冷饮店;冷饮店,钨都大道与客家大道交叉口西南140米,"114.924953,25.834600",江西省,赣州市,章贡区,[],客家大道,3.9,29.00,114.924953,25.8346
B0LD1S3AL8,快乐番薯(赣州章贡青年职校店),甜品店,餐饮服务;冷饮店;冷饮店,湖边镇湖边路1号青年科技学校食堂,"114.914984,25.876757",江西省,赣州市,章贡区,17707970891,[],3.7,[],114.914984,25.876757
B0K2FZKGFZ,半日甜Halfs,甜品店,餐饮服务;餐饮相关场所;餐饮相关,新赣州大道7号水游城·尚街,"114.930978,25.815515",江西省,赣州市,章贡区,15179051149,[],4.1,[],114.930978,25.815515
B0JKT62OV3,批冰,甜品店,餐饮服务;冷饮店;冷饮店,金富康小区南区南1门东北70米,"114.875046,25.753377",江西省,赣州市,章贡区,[],[],0.2,[],114.875046,25.753377
B0J0MZ0FQ0,海南椰奶清补凉(西城广场店),甜品店,餐饮服务;冷饮店;冷饮店,黄金大道与金坪西路交叉口东南40米,"114.860887,25.844336",江西省,赣州市,章贡区,18270752904,[],3.7,[],114.860887,25.844336
B0HRCSLPIK,CoCo都可(西城杨坑店),甜品店,餐饮服务;冷饮店;冷饮店,工业三路杨坑公寓小区6栋104店面,"114.858572,25.844452",江西省,赣州市,章贡区,19379769525,[],3.8,29.00,114.858572,25.844452
B0FFGYF411,赣州佳佳旺冰淇淋配送,甜品店,餐饮服务;餐饮相关场所;餐饮相关,黄金开发区工业一路金坪南路赣州德通科技发展有限公司一楼,"114.873354,25.844029",江西省,赣州市,章贡区,0797-8375395;13979708010,[],3.8,[],114.873354,25.844029
B0HRCSLPIK,CoCo都可(西城杨坑店),甜品店,餐饮服务;冷饮店;冷饮店,工业三路杨坑公寓小区6栋104店面,"114.858572,25.844452",江西省,赣州市,章贡区,19379769525,[],3.8,29.00,114.858572,25.844452
B0FFGYF411,赣州佳佳旺冰淇淋配送,甜品店,餐饮服务;餐饮相关场所;餐饮相关,黄金开发区工业一路金坪南路赣州德通科技发展有限公司一楼,"114.873354,25.844029",江西省,赣州市,章贡区,0797-8375395;13979708010,[],3.8,[],114.873354,25.844029
B0FFKMTLP2,炙福布拉肠广式茶点,甜品店,餐饮服务;餐饮相关场所;餐饮相关,南外街道红旗村渔湾里美食街Y8,"114.927893,25.846122",江西省,赣州市,章贡区,18676883890,文明大道,3.9,[],114.927893,25.846122
B0LDGCFNBK,不悟正椰海南清补凉,甜品店,餐饮服务;餐饮相关场所;餐饮相关,蓉江新区赣南大学城文化广场4栋212,"114.891438,25.797903",江西省,赣州市,章贡区,19079767566,[],3.7,[],114.891438,25.797903
B0LAGHT9MV,云烘焙网红蛋糕甜品(金丰美岭山庄店),甜品店,餐饮服务;糕饼店;糕饼店,开发区金东路,"114.909077,25.843361",江西省,赣州市,章贡区,15397974645,金东路,3.7,15.00,114.909077,25.843361
B0LUXZE26M,冰品食代,甜品店,餐饮服务;冷饮店;冷饮店,金坪南路8号,"114.858720,25.844495",江西省,赣州市,章贡区,13979797912,[],3.7,[],114.85872,25.844495
B0KAZ7I8V2,甜沐汐甜品蛋糕店,甜品店,餐饮服务;糕饼店;糕饼店,绵江路22号中央城二期7-21号店面,"114.916129,25.814204",江西省,赣州市,章贡区,0797-8298819,[],3.7,[],114.916129,25.814204
B0K3HR9NHR,梦龙纯冰淇淋蛋糕赣州旗舰总店,甜品店,餐饮服务;糕饼店;糕饼店,南桥新村东三区30-2号店铺,"114.948708,25.826860",江西省,赣州市,章贡区,13755904024,[],3.9,14.00,114.948708,25.82686
B0LU2HVF7D,冰箱甜品店,甜品店,餐饮服务;餐饮相关场所;餐饮相关,张家围路与关刀坪巷交叉口北60米,"114.950770,25.843005",江西省,赣州市,章贡区,18172744488,文明大道,3.7,[],114.95077,25.843005
B0LRCLGKPY,陈记水牛奶甜品世家(赣州分店),甜品店,餐饮服务;甜品店;甜品店,金水路与金叶路交叉口西100米,"114.898325,25.833907",江西省,赣州市,章贡区,[],华坚路,3.7,[],114.898325,25.833907
B0LADS8DLN,冰天雪地雪糕批发,甜品店,餐饮服务;冷饮店;冷饮店,经济技术开发区金星村32栋7号店面,"114.900647,25.833100",江西省,赣州市,章贡区,[],[],3.8,[],114.900647,25.8331
B0K0SU6WFF,快乐番薯(埠上东路店),甜品店,餐饮服务;冷饮店;冷饮店,226省道176号,"114.941039,25.783833",江西省,赣州市,章贡区,18170117738,[],3.7,[],114.941039,25.783833
B0LDS94AH5,三中糖水铺,甜品店,餐饮服务;甜品店;甜品店,青年路21号-8店面,"114.934611,25.855602",江西省,赣州市,章贡区,[],环城路,3.7,[],114.934611,25.855602
B0K0OM51A6,梦龙动物冰激凌生日蛋糕,甜品店,餐饮服务;餐饮相关场所;餐饮相关,九曲河路福缘小区23号,"114.928763,25.804309",江西省,赣州市,章贡区,18607075173,[],3.9,[],114.928763,25.804309
B0FFHOS739,肯德基甜品站(赣州招商花园城店),甜品店,餐饮服务;冷饮店;冷饮店,长征大道1号赣州招商花园城L1层,"114.937024,25.835996",江西省,赣州市,章贡区,[],瑞金路,3.8,[],114.937024,25.835996
B0G1D7FZBS,17cake动物奶油生日蛋糕·甜品(万象城店),甜品店,餐饮服务;糕饼店;糕饼店,琴江路3号铂宫B座F1层,"114.930050,25.819757",江西省,赣州市,章贡区,15970792295,[],3.8,[],114.93005,25.819757
B0KD2Z2LIM,晨瑞雪糕批发(冰淇淋批发),甜品店,购物服务;购物相关场所;购物相关场所,山与城9栋1单元16号店面-2,"114.893843,25.866700",江西省,赣州市,章贡区,[],[],3.9,[],114.893843,25.8667
B0LBZ7OS6G,喜三德甜品.手工芋圆(赣州旗舰店),甜品店,餐饮服务;甜品店;甜品店,定南路南桥新村西一区14号2店,"114.945917,25.822567",江西省,赣州市,章贡区,[],[],3.7,[],114.945917,25.822567
B0KKFCOWG7,椰之星·手作糖水(君尚购物中心赣州店),甜品店,餐饮服务;冷饮店;冷饮店,赣州市章贡区君尚购物中心负一楼,"114.933031,25.817147",江西省,赣州市,章贡区,[],[],4.0,[],114.933031,25.817147
B0KD0CZQQT,禄茗广式茶点(宝能城店),甜品店,餐饮服务;快餐厅;茶餐厅,宝能城东区2栋2号店铺,"114.946748,25.822952",江西省,赣州市,章贡区,13762522215,[],4.0,24.00,114.946748,25.822952
B0KD0CZQQT,禄茗广式茶点(宝能城店),甜品店,餐饮服务;快餐厅;茶餐厅,宝能城东区2栋2号店铺,"114.946748,25.822952",江西省,赣州市,章贡区,13762522215,[],4.0,24.00,114.946748,25.822952
B0LRGCTPU7,豆花阿姨,甜品店,餐饮服务;中餐厅;中餐厅,五峰指路20号赣州中海国际社区(凯旋门)B10地块一期B区2号楼,"114.921466,25.826720",江西省,赣州市,章贡区,[],[],4.2,14.00,114.921466,25.82672
B0K3C9DRH0,独角乐园·棉花糖GELATO研究所,甜品店,体育休闲服务;休闲场所;游乐场,琴江路6号第五大道2期2栋1-21商铺,"114.925022,25.819341",江西省,赣州市,章贡区,13097249521,[],3.8,[],114.925022,25.819341
B0K0YDMY1J,波比艾斯(南门Q-park店),甜品店,餐饮服务;餐饮相关场所;餐饮相关,(南门Q-park)负一楼波比艾斯,"114.939058,25.847956",江西省,赣州市,章贡区,18970702509,东阳山路,4.0,[],114.939058,25.847956
B0JRASO7J5,禾仓甜品(迎宾花园店),甜品店,餐饮服务;甜品店;甜品店,章江北大道58号-25,"114.940232,25.842793",江西省,赣州市,章贡区,15979733333,东阳山路,3.7,140.00,114.940232,25.842793
B0K1VZQLJB,奶芙芙铜锣烧冰淇淋舒芙蕾泰式奶茶老挝冰咖啡,甜品店,餐饮服务;冷饮店;冷饮店,文清路8号中联商城G栋一层,"114.941304,25.852448",江西省,赣州市,章贡区,18270081772,红旗大道,3.6,17.00,114.941304,25.852448
B0FFMCJGB6,麦基思·新概念蛋糕(杨坑店),甜品店,餐饮服务;快餐厅;快餐厅,经济技术开发区杨坑公寓式返迁房62号店铺,"114.860759,25.840948",江西省,赣州市,章贡区,18179790009,[],4.2,22.00,114.860759,25.840948
B0LR9RPPJ0,贝慕思.生日蛋糕.冰淇淋.动物奶油(赣州店),甜品店,餐饮服务;糕饼店;糕饼店,钨都大道2-39-2号店面,"114.925566,25.834251",江西省,赣州市,章贡区,18720733341,客家大道,3.7,[],114.925566,25.834251
B0LUXZK7IK,乐小芋·手作甜品(赣州巨亿万达广场3F),甜品店,餐饮服务;餐饮相关场所;餐饮相关,八一四大道39号万达广场赣州巨亿店F3层,"114.957434,25.832154",江西省,赣州市,章贡区,15279721505,八一四大道,3.7,[],114.957434,25.832154
B0JDJ5DU14,雪娇手工冰品,甜品店,餐饮服务;冷饮店;冷饮店|餐饮服务;甜品店;甜品店,沙河镇如日山路裕华南苑0105号,"114.985219,25.830289",江西省,赣州市,章贡区,18679798807,沙河,3.9,[],114.985219,25.830289
B0LDY51ID9,致品芋圆(中联商城店),甜品店,餐饮服务;餐饮相关场所;餐饮相关,中联商城步行街与文清路交叉口东北100米,"114.940598,25.852303",江西省,赣州市,章贡区,[],文清路,2.9,17.00,114.940598,25.852303
B0K351QLM0,四福提拉米苏,甜品店,餐饮服务;餐饮相关场所;餐饮相关,九曲河路39-58号,"114.930427,25.805915",江西省,赣州市,章贡区,13148837102,[],3.6,[],114.930427,25.805915
B0KKVMH4UG,DQ蛋糕冰淇淋(九方店),甜品店,餐饮服务;冷饮店;冷饮店,长征大道1号天虹商场F1层,"114.935605,25.836311",江西省,赣州市,章贡区,0797-8401341,瑞金路,3.9,[],114.935605,25.836311
B0FFF5SHUV,尝相思(赣州店),甜品店,餐饮服务;糕饼店;糕饼店,黄金开发区金东路嘉年华小区C栋,"114.909369,25.839331",江西省,赣州市,章贡区,15170735300;15970085210,金东路,4.0,44.00,114.909369,25.839331
B0LU3S8LCU,乐小芋·手作甜品(赣州宝能城店),甜品店,餐饮服务;餐饮相关场所;餐饮相关,安远路宝能城,"114.944976,25.820669",江西省,赣州市,章贡区,19379966153,[],3.9,[],114.944976,25.820669
B0KK0GDL6K,化州糖水私房菜,甜品店,餐饮服务;餐饮相关场所;餐饮相关,蟠龙镇黄金开发区工业三路光宝力信正对面12栋,"114.860727,25.840610",江西省,赣州市,章贡区,18970121573,[],3.6,[],114.860727,25.84061
B0LDT75481,梅子糖水,甜品店,餐饮服务;冷饮店;冷饮店,下安返迁房6栋18号商铺,"114.916089,25.879326",江西省,赣州市,章贡区,15180286265,[],3.7,[],114.916089,25.879326
B0LRFA6CQD,潭东镇毅德城美食街百万糖水铺,甜品店,餐饮服务;餐饮相关场所;餐饮相关,景明路1号,"114.884475,25.761175",江西省,赣州市,章贡区,[],[],3.5,[],114.884475,25.761175
B0LDZLV4BL,康怡冰淇淋,甜品店,购物服务;购物相关场所;购物相关场所,章江路与五指峰路交叉口东北80米,"114.927066,25.822356",江西省,赣州市,章贡区,[],[],3.5,[],114.927066,25.822356
B0J37XMTCB,富芋甜品蛋糕(新苑小区店),甜品店,餐饮服务;糕饼店;糕饼店,新苑小区东北门西南100米,"114.923197,25.821226",江西省,赣州市,章贡区,19807976450,[],3.5,[],114.923197,25.821226
B0LRFA6CQD,潭东镇毅德城美食街百万糖水铺,甜品店,餐饮服务;餐饮相关场所;餐饮相关,景明路1号,"114.884475,25.761175",江西省,赣州市,章贡区,[],[],3.5,[],114.884475,25.761175
B0LDZLV4BL,康怡冰淇淋,甜品店,购物服务;购物相关场所;购物相关场所,章江路与五指峰路交叉口东北80米,"114.927066,25.822356",江西省,赣州市,章贡区,[],[],3.5,[],114.927066,25.822356
B0J37XMTCB,富芋甜品蛋糕(新苑小区店),甜品店,餐饮服务;糕饼店;糕饼店,新苑小区东北门西南100米,"114.923197,25.821226",江西省,赣州市,章贡区,19807976450,[],3.5,[],114.923197,25.821226
B0J2UKKHNZ,米米冰店,甜品店,餐饮服务;冷饮店;冷饮店,厚德路与健康路交叉口东80米,"114.945641,25.854249",江西省,赣州市,章贡区,18170489838,红旗大道,3.5,[],114.945641,25.854249
B0FFFXL0LL,星语蛋糕店(吉埠店),甜品店,餐饮服务;糕饼店;糕饼店,"沙石镇,吉埠新村,吉埠二路,星语蛋糕","114.958152,25.806320",江西省,赣州市,章贡区,13479769589,[],4.2,[],114.958152,25.80632
B0FFLCAZO2,允平冰店,甜品店,餐饮服务;冷饮店;冷饮店,潭口镇金牛大道6号,"114.843829,25.742033",江西省,赣州市,章贡区,0797-6651093;13667069220,[],4.0,[],114.843829,25.742033
B0FFK29FSB,麦淇蛋糕(阳光和谐家园店),甜品店,餐饮服务;餐饮相关场所;餐饮相关,赣州蓉江新区高校园区阳光和谐家园3-1-3号商铺,"114.910950,25.778429",江西省,赣州市,章贡区,13870724859;15270705190,[],4.1,[],114.91095,25.778429
B0LAVD7CA0,fufu生乳舒芙蕾,甜品店,餐饮服务;糕饼店;糕饼店,南门广场红巢Z77转盘甜啦啦旁边入口下来第一家,"114.939408,25.849388",江西省,赣州市,章贡区,18507974251,文清路,3.5,[],114.939408,25.849388
B0KUTMED3K,赣州宏盛冰淇淋雪糕批发,甜品店,购物服务;购物相关场所;购物相关场所,蓉江新区毅德城商贸物流园1号馆28栋115号,"114.884386,25.757832",江西省,赣州市,章贡区,13479921097;18701971557,[],3.7,[],114.884386,25.757832
B0LDR7GY1M,尧记广式茶点,甜品店,餐饮服务;快餐厅;快餐厅,金星村金叶小区2栋一楼店面,"114.899625,25.827435",江西省,赣州市,章贡区,18206077130,[],3.5,[],114.899625,25.827435
B0JU67POMC,DQ(赣州经开万达店),甜品店,餐饮服务;糕饼店;糕饼店,赣州经济技术开发区金岭大道18号万达广场4楼4010号商铺,"114.908972,25.839942",江西省,赣州市,章贡区,4009951877,金东路,[],[],114.908972,25.839942
B0IULUU8I3,皓诚甜品手工坊(万盛购物中心店),甜品店,餐饮服务;甜品店;甜品店,万盛南街1-22号万盛购物中心(兴国路店),"114.940410,25.827049",江西省,赣州市,章贡区,[],[],3.5,[],114.94041,25.827049
B0LAG4LUR9,金尊冰品,甜品店,餐饮服务;冷饮店;冷饮店,中海凯旋门北门西60米,"114.918493,25.827286",江西省,赣州市,章贡区,[],[],3.4,[],114.918493,25.827286
B0KRS78306,雪糕大世界,甜品店,餐饮服务;冷饮店;冷饮店,金富康小区,"114.873625,25.753547",江西省,赣州市,章贡区,[],[],3.4,[],114.873625,25.753547
B0LD576QEZ,露露糖水铺,甜品店,餐饮服务;餐饮相关场所;餐饮相关,沙石镇光明路12-1号,"114.940796,25.782192",江西省,赣州市,章贡区,[],[],3.7,[],114.940796,25.782192
B0FFG13EIQ,光明批冰店,甜品店,餐饮服务;冷饮店;冷饮店,玉潭大道与鑫林街交叉口西南180米,"114.845284,25.737457",江西省,赣州市,章贡区,15779719145,[],3.8,[],114.845284,25.737457
B0IDCU6ZN3,果捞捞·水果捞·小吃,甜品店,餐饮服务;甜品店;甜品店,厚德路17号金桥花园B栋A-14号店,"114.953381,25.854971",江西省,赣州市,章贡区,18779725095,红旗大道,3.5,[],114.953381,25.854971
B0LAH7GLWH,满满批冰,甜品店,餐饮服务;冷饮店;冷饮店,沙河镇五龙三路8号东方红广场小区5号楼1号店,"114.958669,25.827058",江西省,赣州市,章贡区,[],沙河,3.4,[],114.958669,25.827058
B0LDDS469P,润甜糖水,甜品店,餐饮服务;冷饮店;冷饮店,赣州经济技术开发区湖边镇湖边村下安组26号-2号店面,"114.914816,25.881001",江西省,赣州市,章贡区,[],[],3.5,[],114.914816,25.881001
B0LU9KBHQF,亦堂烧仙草,甜品店,餐饮服务;冷饮店;冷饮店,慈云塔路与拜将台路交叉口东280米,"114.963715,25.845996",江西省,赣州市,章贡区,[],[],2.4,[],114.963715,25.845996
B0FFK799CR,星巴克(赣州万象城店),咖啡店,餐饮服务;咖啡厅;星巴克咖啡,新赣州大道8号L160铺,"114.926955,25.814272",江西省,赣州市,章贡区,0797-8330086,[],4.6,32.00,114.926955,25.814272
B0K6SA3NSB,半菊·COFFEE(阳明国际中心店),咖啡店,餐饮服务;咖啡厅;咖啡厅,新赣州大道18号阳明国际中心F1层,"114.920005,25.810291",江西省,赣州市,章贡区,15579871171,[],4.5,40.00,114.920005,25.810291
B0LBA7J4XI,daydream cafe白日梦咖啡馆,咖啡店,餐饮服务;咖啡厅;咖啡厅,温德姆酒店与乐豆家中间巷子进来左手边,"114.933933,25.816543",江西省,赣州市,章贡区,17370769799,[],4.3,45.00,114.933933,25.816543
B0I2LAYMSF,肆溢Cafe&Bar(万象店),咖啡店,餐饮服务;咖啡厅;咖啡厅,华润幸福里三期24栋1号店(靠近外围高架桥),"114.929235,25.816028",江西省,赣州市,章贡区,15180285870;19179062925,[],4.4,25.00,114.929235,25.816028
B0JGTUW6DN,HILLSLTR丛山笺(三和悦城店),咖啡店,餐饮服务;咖啡厅;咖啡厅,章江街道赣江源大道6号三和悦城3栋8号铺,"114.944427,25.819167",江西省,赣州市,章贡区,18988761017,[],4.6,36.00,114.944427,25.819167
B0JDYMZ15T,鲸时咖啡(江南宋城店),咖啡店,餐饮服务;咖啡厅;咖啡厅,建国路与章贡路交叉口北180米,"114.939098,25.866011",江西省,赣州市,章贡区,17507066650,[],4.6,13.00,114.939098,25.866011
B0FFK6O3V2,星巴克(赣州步步高新天地店),咖啡店,餐饮服务;咖啡厅;星巴克咖啡,红旗大道33号赣州步步高新天地1001,"114.940228,25.848870",江西省,赣州市,章贡区,0797-8330080,营角上,4.8,30.00,114.940228,25.84887
B0H32U5U91,JIOJIO啾啾甜品·蛋糕·咖啡,咖啡店,餐饮服务;咖啡厅;咖啡厅|购物服务;购物相关场所;购物相关场所,于都路17-2号(文清路小学豪德校区正对面),"114.940926,25.825208",江西省,赣州市,章贡区,18579708570;18720791096,[],4.5,27.00,114.940926,25.825208
B0J3LHBDV1,APT COFFEE(水韵春天店),咖啡店,餐饮服务;咖啡厅;咖啡厅,水韵春天,"114.940001,25.819479",江西省,赣州市,章贡区,19979794110,[],4.3,29.00,114.940001,25.819479
B0K2H9M2G3,言屿coffee,咖啡店,餐饮服务;咖啡厅;咖啡厅,起点壹中心商铺5号楼一楼,"114.922587,25.819262",江西省,赣州市,章贡区,18679711109,[],4.6,34.00,114.922587,25.819262
B0KKSHW6GE,台阶上咖啡店,咖啡店,餐饮服务;咖啡厅;咖啡厅,水南镇油山路中心天枢4号楼1-11号铺,"114.915269,25.811237",江西省,赣州市,章贡区,18479737075,[],4.4,33.00,114.915269,25.811237
B0KATDMS5O,虔城与你咖啡&果酱烧烤 (第5大道2期店),咖啡店,餐饮服务;咖啡厅;咖啡厅,琴江路6号第五大道二期双廷B座口,"114.925670,25.818328",江西省,赣州市,章贡区,19880562774,[],4.3,25.00,114.92567,25.818328
B0FFMGZ115,星巴克(赣州九方购物中心店),咖啡店,餐饮服务;咖啡厅;星巴克咖啡,长征大道1号,"114.935460,25.836375",江西省,赣州市,章贡区,0797-8330108,瑞金路,4.6,43.00,114.93546,25.836375
B0J22MTMG6,上岸Ashore(咖啡·酒吧·奶茶·轻食),咖啡店,体育休闲服务;娱乐场所;酒吧,水东镇玉虚观浮桥头25号附1号店面,"114.952397,25.865518",江西省,赣州市,章贡区,19136914638,[],4.4,21.00,114.952397,25.865518
B0JK6H3T1Y,L.House(城市主场店),咖啡店,餐饮服务;咖啡厅;咖啡厅,宁都路城市主场1栋15号商铺,"114.940155,25.822100",江西省,赣州市,章贡区,19323979405,[],4.3,29.00,114.940155,25.8221
B0FFMC5N7B,瑞幸咖啡(赣州达芬奇国际中心店),咖啡店,餐饮服务;咖啡厅;咖啡厅,长岗路13号达芬奇国际中心10号楼大堂,"114.930031,25.823951",江西省,赣州市,章贡区,4000100100,[],4.3,29.00,114.930031,25.823951
B0LATD1F2F,库迪咖啡便利店(赣州招商局中心店),咖啡店,餐饮服务;咖啡厅;咖啡厅,橙乡大道50号招商局中心裙楼A-L1010商业,"114.913926,25.809279",江西省,赣州市,章贡区,17679300926,[],4.3,8.00,114.913926,25.809279
B0IUOCAFT4,Sour Moon酸月亮,咖啡店,餐饮服务;冷饮店;冷饮店,信丰路黄金福瑞小区2号楼8号店面,"114.913820,25.826428",江西省,赣州市,章贡区,13479947562,[],4.6,32.00,114.91382,25.826428
B0HK0GBEQ1,星巴克(赣州泽丰环球汇店),咖啡店,餐饮服务;咖啡厅;星巴克咖啡,安远路9号泽丰环球汇地上一层1035单元,"114.946920,25.820165",江西省,赣州市,章贡区,0797-8680881,[],4.5,37.00,114.94692,25.820165
B0IBSHTDKE,AMBER Cafe&Bistro 琥珀咖啡与酒(赣州万象城店),咖啡店,餐饮服务;咖啡厅;咖啡厅,华润中心万象SohoL114-15号,"114.927645,25.814804",江西省,赣州市,章贡区,19970963686,[],4.4,[],114.927645,25.814804
B0G1DLJR96,蜜雪冰城(步步高一楼店),咖啡店,餐饮服务;冷饮店;冷饮店,红旗大道步步高新天地一楼1055号,"114.940511,25.849003",江西省,赣州市,章贡区,15515565349,营角上,4.4,7.00,114.940511,25.849003
B0IGHLFKB9,瑞幸咖啡(赣州万象城店),咖啡店,餐饮服务;咖啡厅;咖啡厅,水南街道登峰大道赣州万象城冰纷万象滑冰场冰纷小憩号商铺,"114.926819,25.814803",江西省,赣州市,章贡区,4000100100,[],4.4,[],114.926819,25.814803
B0JR6URWWR,库迪咖啡(赣州华润大厦C座店),咖啡店,餐饮服务;咖啡厅;咖啡厅,三百山路华润大厦C座1号铺(地下停车场入口西北侧),"114.927988,25.815659",江西省,赣州市,章贡区,15007080429,[],4.2,10.00,114.927988,25.815659
B0K17GPXZE,三喜SANXIBISTRO,咖啡店,餐饮服务;咖啡厅;咖啡厅,水游城内街7-183,"114.931017,25.815545",江西省,赣州市,章贡区,13330131753,[],4.4,59.00,114.931017,25.815545
B0KKFOO1RQ,星巴克(赣州君尚购物中心店),咖啡店,餐饮服务;咖啡厅;星巴克咖啡,新赣州大道3号君尚购物中心地上一层1016号铺位,"114.933101,25.817473",江西省,赣州市,章贡区,0797-2137719,[],4.6,40.00,114.933101,25.817473
B0HDY6PEGX,啡泊FAB·CAFE(新区店),咖啡店,餐饮服务;餐饮相关场所;餐饮相关,幸福里二期西北门旁,"114.927191,25.818038",江西省,赣州市,章贡区,15297851992,[],4.4,22.00,114.927191,25.818038
B0KG3SMQOV,Cyclecoffee(嘉福·尚江尊品店),咖啡店,餐饮服务;咖啡厅;咖啡厅,梅关大道20号嘉福尚江尊品二期4号楼4号店面,"114.939246,25.808056",江西省,赣州市,章贡区,19079719168,[],4.2,35.00,114.939246,25.808056
B0I1TH78TA,luckin coffee 瑞幸咖啡(赣南大学城文化广场店),咖啡店,餐饮服务;咖啡厅;咖啡厅,章贡区文化广场肯德基旁,"114.891233,25.798035",江西省,赣州市,章贡区,4000100100,[],4.6,14.00,114.891233,25.798035
B0JDODCO9P,库迪咖啡(赣州国际企业中心店),咖啡店,餐饮服务;咖啡厅;咖啡厅,华昌路9号国际企业中心5号楼1层底商,"114.895905,25.860045",江西省,赣州市,章贡区,18870765443,[],4.5,10.00,114.895905,25.860045
B0LAADGYGZ,幸运咖(环城路店),咖啡店,餐饮服务;咖啡厅;咖啡厅,青年路15号(原19号)保育院教学楼综合楼一层店面15-31店面,"114.935573,25.854588",江西省,赣州市,章贡区,18270008032,红旗大道,4.3,8.00,114.935573,25.854588
B0I2O5UFZL,星巴克(赣州经开万达广场店),咖啡店,餐饮服务;咖啡厅;星巴克咖啡,金岭东大道与东江源大道交汇处万达广场地上一层1001店铺,"114.900040,25.840668",江西省,赣州市,章贡区,0797-8330010,[],4.2,31.00,114.90004,25.840668
B0KDARJD6P,缇里咖啡(赣州达芬奇城市中心店),咖啡店,餐饮服务;咖啡厅;咖啡厅,达芬奇城市中心1号6号铺,"114.923204,25.818424",江西省,赣州市,章贡区,18178989887,[],4.2,16.00,114.923204,25.818424
B0JKYYHD0R,好耶!萨摩耶主题狗咖,咖啡店,体育休闲服务;娱乐场所;娱乐场所,红旗大道赣坊G7,"114.930371,25.850034",江西省,赣州市,章贡区,19067088375,文明大道,3.9,47.00,114.930371,25.850034
B0J3MMDV5Y,瑞幸咖啡(赣南师范大学店),咖啡店,餐饮服务;咖啡厅;咖啡厅,[],"114.887400,25.797029",江西省,赣州市,章贡区,4000100100,[],4.2,15.00,114.8874,25.797029
B0JUOM35GK,库迪咖啡(赣州漫乐城店),咖啡店,餐饮服务;咖啡厅;咖啡厅,张家围路58号漫乐城广场一期1层52号底商,"114.950992,25.840752",江西省,赣州市,章贡区,19070753025,[],4.3,10.00,114.950992,25.840752
B0I37UTM1M,幸运咖(环城路旗舰店),咖啡店,餐饮服务;咖啡厅;咖啡厅,青年路15号(原19号)保育院教学楼综合楼一层店面15-31店面,"114.935599,25.854641",江西省,赣州市,章贡区,18270008032,红旗大道,4.2,[],114.935599,25.854641
B0FFJBCLYW,啡泊F.A.B CAFE(老区),咖啡店,餐饮服务;咖啡厅;咖啡厅,赖家围路2号鹭江花园门口,"114.947754,25.842156",江西省,赣州市,章贡区,15297851992,文明大道,4.4,25.00,114.947754,25.842156
B0JKFL10GG,缇里咖啡(赣州蓬友圈店),咖啡店,餐饮服务;咖啡厅;咖啡厅,东江源大道50号赣州市图书馆新馆旁蓬友圈街区中心缇里·coffee,"114.917144,25.810694",江西省,赣州市,章贡区,19170778378,[],4.4,[],114.917144,25.810694
B0GD3A2VD6,阿虾說咖啡馆•A Blind Say Cafe,咖啡店,餐饮服务;咖啡厅;咖啡厅,水南镇章江路12-2号富苑小区阿虾說咖啡馆,"114.927943,25.823102",江西省,赣州市,章贡区,13117912457,[],4.3,21.00,114.927943,25.823102
B0IAZHUBKU,瑞幸咖啡(赣州九方购物中心店),咖啡店,餐饮服务;咖啡厅;咖啡厅,翠微路1号中航城3栋1-26店面,"114.937419,25.835948",江西省,赣州市,章贡区,4000100100,瑞金路,4.5,[],114.937419,25.835948
B0LACCL8ZG,库迪咖啡(赣南医科大学黄金西门店),咖啡店,餐饮服务;咖啡厅;咖啡厅,创业路6号,"114.896898,25.774232",江西省,赣州市,章贡区,18317972626,[],4.2,10.00,114.896898,25.774232
B0KRNXQUDI,77Coffee,咖啡店,餐饮服务;咖啡厅;咖啡厅,琴江路8号华润中心A区5号楼22号幸福汇商铺,"114.925232,25.818404",江西省,赣州市,章贡区,18270767391,[],4.3,28.00,114.925232,25.818404
B0LROUWPZB,星巴克(赣州杉杉奥特莱斯广场店),咖啡店,餐饮服务;咖啡厅;咖啡厅,和谐大道18号杉杉奥特莱斯广场地上一层B129之1铺位,"114.945762,25.802019",江西省,赣州市,章贡区,0797-8194450,[],4.5,[],114.945762,25.802019
B0H1MUXLPF,野咖合作社,咖啡店,餐饮服务;咖啡厅;咖啡厅,赖家围路张家围煤气公司宿舍沿街,"114.949574,25.841596",江西省,赣州市,章贡区,19144475660,文明大道,4.4,27.00,114.949574,25.841596
B0KUVSTUSP,巷子客厅,咖啡店,餐饮服务;咖啡厅;咖啡厅,红旗大道94号国际时代广场22栋18号(中国电信隔壁),"114.922244,25.856504",江西省,赣州市,章贡区,13217977113,章江北,4.2,29.00,114.922244,25.856504
B0FFLOJ7WU,瑞幸咖啡(万盛购物中心店),咖啡店,餐饮服务;咖啡厅;咖啡厅,兴国路9号和富城百货L1-001D号铺,"114.939955,25.828668",江西省,赣州市,章贡区,4000100100,[],4.5,20.00,114.939955,25.828668
B0JGCAJ6T0,库迪咖啡(赣州豪德银座店),咖啡店,餐饮服务;咖啡厅;咖啡厅,章江南大道18号,"114.943674,25.834048",江西省,赣州市,章贡区,19970978092,瑞金路,4.3,10.00,114.943674,25.834048
B0G1TCWNLF,久时咖啡(九方店),咖啡店,餐饮服务;咖啡厅;咖啡厅,翠微路1号赣州中航城3栋2-16号店面,"114.937354,25.835683",江西省,赣州市,章贡区,15279152505;15970058164,瑞金路,4.1,18.00,114.937354,25.835683
B0LGJHO7FB,sis·山归来鲜花咖啡馆,咖啡店,餐饮服务;咖啡厅;咖啡厅,万象城幸福三期23栋7号商铺,"114.929813,25.816511",江西省,赣州市,章贡区,15570079420,[],4.2,38.00,114.929813,25.816511
B0FFIKLYI8,棠觅咖啡(中航城店),咖啡店,餐饮服务;咖啡厅;咖啡厅,九方停车场入口处天桥二楼,"114.936893,25.835163",江西省,赣州市,章贡区,0797-8295558,瑞金路,3.8,20.00,114.936893,25.835163
B0KKO7QWSN,肯悦咖啡,咖啡店,餐饮服务;咖啡厅;咖啡厅,东阳山路与东营路小巷交叉口东北80米,"114.938597,25.848310",江西省,赣州市,章贡区,[],营角上,3.9,[],114.938597,25.84831
B0IKD7CNMM,库迪咖啡(赣州阳明国际中心店),咖啡店,餐饮服务;咖啡厅;咖啡厅,赣州大道18号阳明国际中心1号楼大堂右侧,"114.921189,25.810057",江西省,赣州市,章贡区,18000777509,[],4.3,10.00,114.921189,25.810057
B0LRN6J06J,清江水coffee&beer,咖啡店,餐饮服务;咖啡厅;咖啡厅,田螺岭27号,"114.937975,25.865820",江西省,赣州市,章贡区,18279717358,[],4.2,[],114.937975,25.86582
B0LDJZR0SC,幸运咖(万象城店),咖啡店,餐饮服务;餐饮相关场所;餐饮相关,三百山路与桃江路交叉口北60米,"114.927140,25.816612",江西省,赣州市,章贡区,13479482531,[],4.5,8.00,114.92714,25.816612
B0L6USUGCX,陶兮·国茶咖啡,咖啡店,餐饮服务;咖啡厅;咖啡厅,中心天枢3号楼1-7号商铺(内街一楼),"114.914432,25.811689",江西省,赣州市,章贡区,18770732281,[],4.2,29.00,114.914432,25.811689
B0K2J7T9A7,九份咖啡甜品,咖啡店,餐饮服务;餐饮相关场所;餐饮相关,琴江路8号华润中心A区6号,"114.925175,25.817325",江西省,赣州市,章贡区,19196706357,[],4.1,30.00,114.925175,25.817325
B0J3XC0Q01,瑞幸咖啡(赣州步步高店),咖啡店,餐饮服务;咖啡厅;咖啡厅,东外街道红旗大道33号步步高新天地1楼1047号商铺,"114.940675,25.848675",江西省,赣州市,章贡区,4000100100,营角上,4.3,12.00,114.940675,25.848675
B0JGNAXOA8,库迪咖啡(万达广场店),咖啡店,餐饮服务;咖啡厅;咖啡厅,黄金岭街道万达广场(赣州万达店)2号门,"114.901855,25.841719",江西省,赣州市,章贡区,19128253804,[],4.1,13.00,114.901855,25.841719
B0LAFURRTR,木寂咖啡,咖啡店,餐饮服务;咖啡厅;咖啡厅,城市家园9栋1-2号店铺(兴国路章江宾馆正对面),"114.920132,25.822035",江西省,赣州市,章贡区,[],[],4.5,[],114.920132,25.822035
B0IGKCJ6YU,SEEDS種子咖啡(南桥新村西二区店),咖啡店,餐饮服务;咖啡厅;咖啡厅,于都路南桥新村西二区20-1号店铺,"114.946358,25.823479",江西省,赣州市,章贡区,17370788455,瑞金路,4.3,32.00,114.946358,25.823479
B0JK6BW8T0,星巴克咖啡(赣州杉杉奥特莱斯广场店),咖啡店,餐饮服务;咖啡厅;星巴克咖啡,和谐大道18号杉杉奥特莱斯广场地上一层B129-1铺位,"114.945762,25.802019",江西省,赣州市,章贡区,0797-8194450,[],4.4,28.00,114.945762,25.802019
B0JRZ54KUJ,一丢丢茶咖(水游城X公域店),咖啡店,餐饮服务;冷饮店;冷饮店,水游城X公域S3栋1-8号商铺,"114.933848,25.816365",江西省,赣州市,章贡区,13766387797,[],4.3,14.00,114.933848,25.816365
B0K0LMSRDV,瑞幸咖啡(江西理工大学店),咖啡店,餐饮服务;咖啡厅;咖啡厅,理工大学西郊路31-1,"114.927808,25.856841",江西省,赣州市,章贡区,4000100100,红旗大道,4.4,14.00,114.927808,25.856841
B0JG15FB1F,S7COFFEE咖啡馆(黄金时代A区店),咖啡店,餐饮服务;咖啡厅;咖啡厅,赞贤路9号黄金时代25栋7号店,"114.930621,25.830717",江西省,赣州市,章贡区,19070630102,[],4.0,28.00,114.930621,25.830717
B0I33SWDSM,瑞幸咖啡(赣州经开万达广场4楼店),咖啡店,餐饮服务;咖啡厅;咖啡厅,经开万达广场电影院旁边,"114.902079,25.842167",江西省,赣州市,章贡区,4000100100,[],4.4,12.00,114.902079,25.842167
B0LGHAJUV6,luckin coffee 瑞幸咖啡(温馨家园·悦园店),咖啡店,餐饮服务;咖啡厅;咖啡厅,蓉江新区高校园区温馨家园悦园小区9栋7号(便民服务中心),"114.909061,25.777486",江西省,赣州市,章贡区,18679975882,[],4.3,17.00,114.909061,25.777486
B0JGHZQBS1,瑞幸咖啡(赣州青年路店),咖啡店,餐饮服务;咖啡厅;咖啡厅,南外街道环城路58号1栋赣州市第三中学青年路校区对面,"114.935219,25.855354",江西省,赣州市,章贡区,4000100100,理工,4.5,20.00,114.935219,25.855354
B0JALU8NGR,库迪咖啡(章贡区中联商城店),咖啡店,餐饮服务;咖啡厅;咖啡厅,中联商城F栋5号底商(中心转盘处南侧),"114.941712,25.852181",江西省,赣州市,章贡区,17879928245,红旗大道,4.2,10.00,114.941712,25.852181
B0JG6AKWYK,瑞幸咖啡(赣州九曲河路店),咖啡店,餐饮服务;咖啡厅;咖啡厅,九曲河路福缘小区10号商铺,"114.928246,25.803574",江西省,赣州市,章贡区,4000100100,[],4.4,18.00,114.928246,25.803574
B0JRHNCO4J,瑞幸咖啡(赣州中联商城步行街店),咖啡店,餐饮服务;咖啡厅;咖啡厅,文清路与环城路交叉口东220米,"114.941282,25.849919",江西省,赣州市,章贡区,4000100100,文清路,4.6,12.00,114.941282,25.849919
B0H35H5LQZ,瑞幸咖啡(阳明国际中心店),咖啡店,餐饮服务;咖啡厅;咖啡厅,新赣州大道18号阳明国际中心2号楼大堂,"114.920052,25.809174",江西省,赣州市,章贡区,4000100100,[],4.4,[],114.920052,25.809174
B0I1R1AR4S,luckin coffee 瑞幸咖啡(赣州泽丰环球汇店),咖啡店,餐饮服务;咖啡厅;咖啡厅,水南镇赣江源大道与瑞金路交汇处赣州泽丰环球汇一楼1002铺,"114.945395,25.820592",江西省,赣州市,章贡区,4000100100,[],4.4,17.00,114.945395,25.820592
B0JG3RYRKK,luckin coffee 瑞幸咖啡(赣州大润发店),咖啡店,餐饮服务;咖啡厅;咖啡厅,红旗大道94号国际时代广场,"114.922877,25.853676",江西省,赣州市,章贡区,4000100100,红旗大道,4.5,22.00,114.922877,25.853676
B0JRVUNIMF,库迪咖啡(赣州财智广场店),咖啡店,餐饮服务;咖啡厅;咖啡厅,兴国路18号财智广场B座1层外侧,"114.937477,25.829594",江西省,赣州市,章贡区,13317073724,[],4.3,10.00,114.937477,25.829594
B0L6OSB5O4,luckin coffee 瑞幸咖啡(赣南医科大学附属第一医院店),咖啡店,餐饮服务;咖啡厅;咖啡厅,经济开发区金岭路北侧金赣路西侧大坪农民公寓两店面7号,"114.891978,25.840100",江西省,赣州市,章贡区,19179099858,[],4.4,11.00,114.891978,25.8401
B0L6KL23VE,瑞幸咖啡(赣州锦晖广场店),咖啡店,餐饮服务;餐饮相关场所;餐饮相关,锦晖广场,"114.896975,25.829006",江西省,赣州市,章贡区,[],[],4.3,17.00,114.896975,25.829006
B0L6G1HE49,瑞幸咖啡(君尚购物中心赣州店),咖啡店,餐饮服务;咖啡厅;咖啡厅,新赣州大道3号君尚购物中心赣州店B1层B1001铺,"114.933357,25.817472",江西省,赣州市,章贡区,[],[],4.4,17.00,114.933357,25.817472
B0JBR5RHLM,瑞幸咖啡(赣州经开国际企业中心店),咖啡店,餐饮服务;咖啡厅;咖啡厅,黄金岭街道老上海生煎馆国际企业中心店赣州国际企业中心总部园区,"114.897870,25.860539",江西省,赣州市,章贡区,4000100100,[],4.5,18.00,114.89787,25.860539
B0LGDUIXWS,luckin coffee瑞幸咖啡(潭口店),咖啡店,餐饮服务;咖啡厅;咖啡厅,广场南路109号,"114.848815,25.741159",江西省,赣州市,章贡区,[],[],4.3,17.00,114.848815,25.741159
B0J3AMLXNM,luckin coffee 瑞幸咖啡(赣州万象城金街店),咖啡店,餐饮服务;咖啡厅;咖啡厅,华润大厦B座(三百山路西),"114.927040,25.816106",江西省,赣州市,章贡区,19324826917,[],4.4,15.00,114.92704,25.816106
B0JU414UCT,瑞幸咖啡(赣州第五大道店),咖啡店,餐饮服务;咖啡厅;咖啡厅,琴江路6号第五大道二期3栋1层-12a-2商铺,"114.926495,25.818798",江西省,赣州市,章贡区,4000100100,[],4.2,10.00,114.926495,25.818798
B0J3XC98JM,瑞幸咖啡(赣州中海国际店),咖啡店,餐饮服务;咖啡厅;咖啡厅,五指峰路中海凯旋门3幢3号商铺,"114.921183,25.827357",江西省,赣州市,章贡区,4000100100,[],4.1,12.00,114.921183,25.827357
B0KKR11AJA,luckin coffee 瑞幸咖啡(南门Q- Park店),咖啡店,餐饮服务;咖啡厅;咖啡厅,红旗大道南门口B地块南门Q-Park购物中心1层1-003商铺,"114.938697,25.848340",江西省,赣州市,章贡区,[],营角上,4.4,13.00,114.938697,25.84834
B0KKN752FL,瑞幸咖啡(万象城华润大厦C座店),咖啡店,餐饮服务;咖啡厅;咖啡厅,琴江路5号华润中心c2区华润大厦c座22号商铺,"114.928014,25.815643",江西省,赣州市,章贡区,4000100100,[],4.4,13.00,114.928014,25.815643
B0LRMRZEHV,库迪咖啡(赣州西城广场店),咖啡店,餐饮服务;咖啡厅;咖啡厅,迎宾大道西城广场A3铺,"114.861210,25.844440",江西省,赣州市,章贡区,15216117687,[],4.3,13.00,114.86121,25.84444
B0LULD7QZU,luckin coffee 瑞幸咖啡(郁孤台店),咖啡店,餐饮服务;咖啡厅;咖啡厅,郁孤台历史文化街1-1,"114.939185,25.865651",江西省,赣州市,章贡区,[],[],4.5,[],114.939185,25.865651
B0K3S9NULI,瑞幸咖啡(赣州中环生活广场店),咖啡店,餐饮服务;咖啡厅;咖啡厅,中环生活广场,"114.911967,25.822199",江西省,赣州市,章贡区,4000100100,[],4.2,19.00,114.911967,25.822199
B0JGCALIRC,瑞幸咖啡(赣州漫乐城店),咖啡店,餐饮服务;咖啡厅;咖啡厅,东外街道关刀坪路富安商住楼,"114.950875,25.841182",江西省,赣州市,章贡区,4000100100,[],4.1,13.00,114.950875,25.841182
B0J3MCJYWW,库迪咖啡(赣州万达广场店),咖啡店,餐饮服务;咖啡厅;咖啡厅,经济开发区金岭东大道万达外广场2号门口东侧,"114.899875,25.841425",江西省,赣州市,章贡区,19128253804,[],4.1,10.00,114.899875,25.841425
B0KBO1D9HO,瑞幸咖啡(赣州云星世纪广场店),咖啡店,餐饮服务;咖啡厅;咖啡厅,水南镇赣江源大道8号云星中央星城二期12号楼7号商铺,"114.950516,25.818966",江西省,赣州市,章贡区,4000100100,瑞金路,4.2,13.00,114.950516,25.818966
B0FFMDSPOS,瑞幸咖啡(赣州万象国际店),咖啡店,餐饮服务;咖啡厅;咖啡厅,慈云塔路2号万象国际6栋4-14-2店铺,"114.957551,25.845437",江西省,赣州市,章贡区,4000100100,文明大道,4.4,14.00,114.957551,25.845437
B0JK0ZOB4U,瑞幸咖啡(赣州九铭广场店),咖啡店,餐饮服务;咖啡厅;咖啡厅,章江路21号九铭广场4号酒店1-3号铺,"114.917159,25.813349",江西省,赣州市,章贡区,4000100100,[],4.2,15.00,114.917159,25.813349
B0KKDZUQHO,库迪咖啡(东江源校区江西环境工程职业学院店),咖啡店,餐饮服务;咖啡厅;咖啡厅,江西环境工程职业学院主干道4号店铺,"114.914652,25.884495",江西省,赣州市,章贡区,17579181218,[],4.0,10.00,114.914652,25.884495
B0KK6SNMBJ,库迪咖啡(沙河大道店),咖啡店,餐饮服务;咖啡厅;咖啡厅,沙河镇站东大道73号1 #店,"114.969783,25.824300",江西省,赣州市,章贡区,18162192280,沙河,3.9,14.00,114.969783,25.8243
B0KR69Y4S4,瑞幸咖啡(沙河站东大道店),咖啡店,餐饮服务;咖啡厅;咖啡厅,站东大道与东二巷交叉口东40米,"114.969928,25.824342",江西省,赣州市,章贡区,4000100100,沙河,4.1,15.00,114.969928,25.824342
B0JU75NJ03,符号cafe(银庭花园店),咖啡店,餐饮服务;咖啡厅;咖啡厅,章江南大道20号银庭花园小区20号店铺,"114.942759,25.835308",江西省,赣州市,章贡区,15970727286,瑞金路,4.2,31.00,114.942759,25.835308
B0K027683H,NOWWA挪瓦咖啡(见福赣州华润幸福里店),咖啡店,餐饮服务;咖啡厅;咖啡厅|购物服务;购物相关场所;购物相关场所,赣州市华润幸福里 2 期 28 栋 1 号商铺,"114.928342,25.816959",江西省,赣州市,章贡区,18707073987,[],4.0,18.00,114.928342,25.816959
B0KDURCVK7,浮桥计划,咖啡店,风景名胜;风景名胜相关;旅游景点,水东镇老浮桥浮桥头,"114.952247,25.865837",江西省,赣州市,章贡区,13223665596,[],4.3,[],114.952247,25.865837
B0LR7ZIHC8,luckin coffee 瑞幸咖啡(达芬奇大堂店),咖啡店,餐饮服务;咖啡厅;咖啡厅,达芬奇国际中心10号楼大堂,"114.930623,25.822335",江西省,赣州市,章贡区,19970173215,[],4.0,[],114.930623,25.822335
B0IGACU86D,Drop coffee(南河路16号大院店),咖啡店,餐饮服务;咖啡厅;咖啡厅,南河路18号,"114.934971,25.845307",江西省,赣州市,章贡区,18679726734,东阳山路,4.1,[],114.934971,25.845307
B0LR7ZIHC8,luckin coffee 瑞幸咖啡(达芬奇大堂店),咖啡店,餐饮服务;咖啡厅;咖啡厅,达芬奇国际中心10号楼大堂,"114.930623,25.822335",江西省,赣州市,章贡区,19970173215,[],4.0,[],114.930623,25.822335
B0IGACU86D,Drop coffee(南河路16号大院店),咖啡店,餐饮服务;咖啡厅;咖啡厅,南河路18号,"114.934971,25.845307",江西省,赣州市,章贡区,18679726734,东阳山路,4.1,[],114.934971,25.845307
B0J34U0OT1,瑞幸咖啡(赣州嘉福金融中心店),咖啡店,餐饮服务;咖啡厅;咖啡厅,橙乡大道26号嘉福金融中心一期7号楼6号商铺,"114.912217,25.810961",江西省,赣州市,章贡区,4000100100,[],4.1,15.00,114.912217,25.810961
B0K2Z503CV,瑞幸咖啡(赣州西城广场店),咖啡店,餐饮服务;咖啡厅;咖啡厅,迎宾大道89号锦绣西城广场,"114.861884,25.844335",江西省,赣州市,章贡区,4000100100,[],4.5,12.00,114.861884,25.844335
B0IDYZVLZN,章贡区晚咖咖啡馆(南桥新村西三区店),咖啡店,餐饮服务;咖啡厅;咖啡厅,水南镇西三区于都路1号店面,"114.946174,25.825757",江西省,赣州市,章贡区,18179708813,瑞金路,4.2,22.00,114.946174,25.825757
B0JAXS6A9U,鲸时咖啡(中创国际店),咖啡店,餐饮服务;咖啡厅;咖啡厅,中创国际城,"114.934516,25.818271",江西省,赣州市,章贡区,15579888070,[],4.1,13.00,114.934516,25.818271
B0HDU5JBXH,久时咖啡(中央公园店),咖啡店,餐饮服务;咖啡厅;咖啡厅,"中央公园东门入口售货亭,隔壁保安亭","114.923732,25.816072",江西省,赣州市,章贡区,18607074708;19917995655,[],4.2,18.00,114.923732,25.816072
B0JGTSTOQH,一磅咖啡烘焙研习所(关刀坪小区店),咖啡店,餐饮服务;餐饮相关场所;餐饮相关,八一四大道58号关刀坪小区,"114.954981,25.836711",江西省,赣州市,章贡区,18607076677,八一四大道,4.1,20.00,114.954981,25.836711
B0IKG79OZZ,小忙咖啡(星洲湾·九境店),咖啡店,餐饮服务;咖啡厅;咖啡厅,韶关路与信丰路交叉口东南120米,"114.907917,25.821609",江西省,赣州市,章贡区,18370996033,[],4.2,27.00,114.907917,25.821609
B0KUJCR8EJ,轻茶里(纬二路店),咖啡店,餐饮服务;餐饮相关场所;餐饮相关,纬二路天空之城18-4号铺,"114.905261,25.861260",江西省,赣州市,章贡区,15793479253,[],4.3,9.00,114.905261,25.86126
B0JRDZY5AP,薄暮Cafe·日咖夜酒,咖啡店,体育休闲服务;娱乐场所;酒吧|餐饮服务;咖啡厅;咖啡厅,南桥天街南桥新村东一区30号,"114.950250,25.824463",江西省,赣州市,章贡区,18379800704;18779727780,[],4.2,32.00,114.95025,25.824463
B0K37DUHVR,月下宠咖·猫咖·撸猫(赣州万象城店),咖啡店,体育休闲服务;体育休闲服务场所;体育休闲服务场所,水南镇万象SOHO寓见公寓(赣州万象城店),"114.927681,25.814916",江西省,赣州市,章贡区,[],[],4.3,[],114.927681,25.814916
B0LDFSXALL,luckin coffee 瑞幸咖啡(湖边大道店),咖啡店,餐饮服务;咖啡厅;咖啡厅,下安小区2栋6号,"114.914825,25.879747",江西省,赣州市,章贡区,19067848314,[],4.2,[],114.914825,25.879747
B0K22ZDJ6O,满笙咖啡花植,咖啡店,餐饮服务;咖啡厅;咖啡厅,长征大道6号金鹏雅典园12号满笙咖啡花植店,"114.934619,25.833413",江西省,赣州市,章贡区,19970876568,客家大道,4.1,23.00,114.934619,25.833413
B0K2S7ABC4,肯悦咖啡(金钻商务大厦店),咖啡店,餐饮服务;咖啡厅;咖啡厅,八一四大道8金钻商务大厦F1层,"114.956506,25.846720",江西省,赣州市,章贡区,[],八一四大道,3.9,[],114.956506,25.84672
B0GRTAE3UH,無咖啡(云星·公园大观店),咖啡店,餐饮服务;咖啡厅;咖啡厅,云星公园大观一栋1-商铺,"114.919407,25.816412",江西省,赣州市,章贡区,13237686713,[],4.4,[],114.919407,25.816412
B0L6G5DYXN,库迪咖啡(第五大道孜夫鸡柳店),咖啡店,餐饮服务;咖啡厅;咖啡厅,水南街道恒瑞第5大道琴江路6号冯校长老火锅斜对面,"114.925825,25.818425",江西省,赣州市,章贡区,13807978677,[],4.1,[],114.925825,25.818425
B0JD5MAE72,布鹿创客咖啡(赣坊店),咖啡店,餐饮服务;咖啡厅;咖啡厅,F1-9,"114.929403,25.850121",江西省,赣州市,章贡区,18138219919;18370404115,文明大道,4.4,17.00,114.929403,25.850121
B0LR2A4GI8,樂界SPACE,咖啡店,餐饮服务;咖啡厅;咖啡厅,梅江路乐速章江体育公园J10-2场地,"114.939416,25.817847",江西省,赣州市,章贡区,[],[],4.6,[],114.939416,25.817847
B0KR2OK7MY,瑞幸咖啡(赣州星海天城店),咖啡店,餐饮服务;咖啡厅;咖啡厅,赣江源大道15号1楼,"114.950021,25.818042",江西省,赣州市,章贡区,4000100100,[],4.4,17.00,114.950021,25.818042
B0JD5MAE72,布鹿创客咖啡(赣坊店),咖啡店,餐饮服务;咖啡厅;咖啡厅,F1-9,"114.929403,25.850121",江西省,赣州市,章贡区,18138219919;18370404115,文明大道,4.4,17.00,114.929403,25.850121
B0LR2A4GI8,樂界SPACE,咖啡店,餐饮服务;咖啡厅;咖啡厅,梅江路乐速章江体育公园J10-2场地,"114.939416,25.817847",江西省,赣州市,章贡区,[],[],4.6,[],114.939416,25.817847
B0KR2OK7MY,瑞幸咖啡(赣州星海天城店),咖啡店,餐饮服务;咖啡厅;咖啡厅,赣江源大道15号1楼,"114.950021,25.818042",江西省,赣州市,章贡区,4000100100,[],4.4,17.00,114.950021,25.818042
B0I11Z7K8M,须尽欢2.0(第五大道店),咖啡店,体育休闲服务;娱乐场所;酒吧,水南镇五指峰路第五大道3栋2楼2-27,"114.927211,25.820332",江西省,赣州市,章贡区,15779785652,[],3.9,[],114.927211,25.820332
B0L66CLMCW,鲸时咖啡(招商局中心店),咖啡店,餐饮服务;餐饮相关场所;餐饮相关,橙乡大道34号,"114.913400,25.809540",江西省,赣州市,章贡区,13207075181,[],4.4,15.00,114.9134,25.80954
B0LDV986ZZ,市民咖啡,咖啡店,餐饮服务;餐饮相关场所;餐饮相关,南康路与赞贤路交叉口西北角9-1号商铺,"114.923742,25.831973",江西省,赣州市,章贡区,19979815277,客家大道,4.2,17.00,114.923742,25.831973
B0K0XZNBT3,库迪咖啡(青年路菲尔雪店),咖啡店,餐饮服务;咖啡厅;咖啡厅,青年路17-11号,"114.935376,25.855243",江西省,赣州市,章贡区,18370964847,红旗大道,3.9,13.00,114.935376,25.855243
B0L6FHHKR1,BeanStar比星咖啡(赣州招商花园城店),咖啡店,餐饮服务;咖啡厅;咖啡厅,招商花园城1F比星咖啡,"114.935985,25.835779",江西省,赣州市,章贡区,19070730606,瑞金路,4.3,22.00,114.935985,25.835779
B0KDFC8DBL,幸运咖(厚德路店),咖啡店,餐饮服务;餐饮相关场所;餐饮相关,厚德路与小南门交叉口东20米,"114.948410,25.854144",江西省,赣州市,章贡区,18079778430,红旗大道,4.1,11.00,114.94841,25.854144
B0KDO1U9P1,红桃咖啡 Hometown.coffee,咖啡店,餐饮服务;咖啡厅;咖啡厅,水游城3号楼14号商业,"114.931613,25.815021",江西省,赣州市,章贡区,15216161670,[],4.2,20.00,114.931613,25.815021
B0KK27XL2Y,波利咖啡,咖啡店,餐饮服务;咖啡厅;咖啡厅,赣坊1969E-1店面,"114.930244,25.850514",江西省,赣州市,章贡区,[],章江北,4.1,34.00,114.930244,25.850514
B0HBH5UJYK,久时咖啡(南门口店),咖啡店,餐饮服务;咖啡厅;咖啡厅,东园公园内,"114.940356,25.849909",江西省,赣州市,章贡区,15279152505,文清路,3.8,23.00,114.940356,25.849909
B0KGL71I8G,瑞幸咖啡(赣州财智广场店),咖啡店,餐饮服务;咖啡厅;咖啡厅,兴国路18号财智广场,"114.936516,25.829456",江西省,赣州市,章贡区,4000100100,[],4.3,14.00,114.936516,25.829456
B0HB1UFSCU,NENO(尼鹿咖啡),咖啡店,餐饮服务;咖啡厅;咖啡厅,长征大道中航城204,"114.936704,25.835132",江西省,赣州市,章贡区,18000275046;18007000884,瑞金路,3.9,18.00,114.936704,25.835132
B0KGOHLHZQ,瑞幸咖啡(赣州银行金融大厦店),咖啡店,餐饮服务;咖啡厅;咖啡厅,赣州银行金融大厦,"114.937464,25.820772",江西省,赣州市,章贡区,4000100100,[],4.1,16.00,114.937464,25.820772
B0K3V7PCS8,森SPACE咖啡,咖啡店,餐饮服务;咖啡厅;咖啡厅,红旗大道63号赣坊1969文化创意广场产业园H栋-14,"114.930195,25.849670",江西省,赣州市,章贡区,[],文明大道,4.1,44.00,114.930195,25.84967
B0J1YUKKDX,鲸时咖啡(国际企业中心店),咖啡店,餐饮服务;餐饮相关场所;餐饮相关,华坚北大道11号楼,"114.897881,25.860482",江西省,赣州市,章贡区,[],[],4.4,13.00,114.897881,25.860482
B0LBUZ4AOV,库迪咖啡(巨亿万达美宜佳店),咖啡店,餐饮服务;咖啡厅;咖啡厅,八一四大道93号(库迪咖啡),"114.956988,25.832545",江西省,赣州市,章贡区,18296724075,八一四大道,4.0,[],114.956988,25.832545
B0L6YN1MF8,肯悦咖啡(君尚购物中心赣州店),咖啡店,餐饮服务;咖啡厅;咖啡厅,君尚购物中心赣州店,"114.933453,25.817448",江西省,赣州市,章贡区,[],[],3.8,20.00,114.933453,25.817448
B0LRRMJVQN,Dim7减七Coffee•Bar(第五大道店),咖啡店,餐饮服务;咖啡厅;咖啡厅,琴江路第五大道三期1栋商业1-13店铺,"114.927412,25.821905",江西省,赣州市,章贡区,15507050520,[],4.1,25.00,114.927412,25.821905
B0L6YN1MF8,肯悦咖啡(君尚购物中心赣州店),咖啡店,餐饮服务;咖啡厅;咖啡厅,君尚购物中心赣州店,"114.933453,25.817448",江西省,赣州市,章贡区,[],[],3.8,20.00,114.933453,25.817448
B0LRRMJVQN,Dim7减七Coffee•Bar(第五大道店),咖啡店,餐饮服务;咖啡厅;咖啡厅,琴江路第五大道三期1栋商业1-13店铺,"114.927412,25.821905",江西省,赣州市,章贡区,15507050520,[],4.1,25.00,114.927412,25.821905
B0LARLB9D6,Coming coffee,咖啡店,餐饮服务;咖啡厅;咖啡厅,登峰大道14号,"114.923529,25.820069",江西省,赣州市,章贡区,17770712814,[],4.0,[],114.923529,25.820069
B0KR3O43HK,维尼宠咖·狗咖·猫咖(万象SOHO店),咖啡店,购物服务;专卖店;宠物用品店,新赣州大道8号赣州万象城,"114.927598,25.815108",江西省,赣州市,章贡区,[],[],4.0,[],114.927598,25.815108
B0JDAU0ROP,朝九晚五喝咖啡(大坪康居苑店),咖啡店,餐饮服务;咖啡厅;咖啡厅,大坪康居苑15栋1号店铺,"114.891474,25.838213",江西省,赣州市,章贡区,15970771881;18079732974,[],3.9,29.00,114.891474,25.838213
B0J1C5AXFU,小九咖咖,咖啡店,餐饮服务;咖啡厅;咖啡厅,南外街道红旗大道84-9,"114.930084,25.852143",江西省,赣州市,章贡区,17343709354,理工,4.1,24.00,114.930084,25.852143
B0K63CN1BT,囍coffee(文汇苑小区店),咖啡店,餐饮服务;咖啡厅;咖啡厅,文汇苑小区,"114.921717,25.831909",江西省,赣州市,章贡区,18779789547,客家大道,3.9,22.00,114.921717,25.831909
B0JB9UW2AF,印咖啡IN COFFEE(启迪店),咖啡店,餐饮服务;咖啡厅;咖啡厅,蓉江新区启迪科技城1期A1栋201(花园层),"114.894097,25.787866",江西省,赣州市,章贡区,13767712429,[],4.0,[],114.894097,25.787866
B0LDY6G50Y,NOWWA挪瓦咖啡(美宜佳赣州南河路店),咖啡店,餐饮服务;咖啡厅;咖啡厅,南河路与温州街交叉口西南60米,"114.936075,25.848275",江西省,赣州市,章贡区,18170690737,文明大道,4.2,19.00,114.936075,25.848275
B031D0R0ZM,意利咖啡(万盛购物中心店),咖啡店,餐饮服务;咖啡厅;咖啡厅,兴国路9号万盛购物中心广场玻璃房二楼,"114.939382,25.827388",江西省,赣州市,章贡区,0797-8088757;0797-8107211;15083905072,[],3.9,36.00,114.939382,25.827388
B0JB3RGKH6,幸运咖(赣南大学城文化广场店),咖啡店,餐饮服务;咖啡厅;咖啡厅,赣南大学城文化广场7栋114-115号店铺,"114.893342,25.798008",江西省,赣州市,章贡区,19870735137,[],4.2,[],114.893342,25.798008
B0K03744W9,黑咖咖啡烘焙实验室,咖啡店,餐饮服务;咖啡厅;咖啡厅,富地中心西入口正对面,"114.930288,25.829574",江西省,赣州市,章贡区,13479760631,[],4.2,[],114.930288,25.829574
B0K69CJOLD,K+coffee,咖啡店,餐饮服务;咖啡厅;咖啡厅,兴国路62号,"114.915473,25.821503",江西省,赣州市,章贡区,13367977539,[],4.2,[],114.915473,25.821503
B0KK0UC8UE,有花的地方,咖啡店,购物服务;花鸟鱼虫市场;花卉市场,橙乡大道28号,"114.910817,25.812194",江西省,赣州市,章贡区,[],[],4.0,[],114.910817,25.812194
B0H35Z1WN6,望希咖啡wan xi coffee(渔湾新苑南区店),咖啡店,餐饮服务;咖啡厅;咖啡厅,稼轩路潮泥湾地矿返迁房3栋1号商铺,"114.929962,25.845891",江西省,赣州市,章贡区,18827971986,章江北,4.2,31.00,114.929962,25.845891
B0J2HHI0L3,瑞幸咖啡(赣州中创国际城店),咖啡店,餐饮服务;咖啡厅;咖啡厅,章江街道赣中创国际城4号楼3号铺位,"114.936963,25.819216",江西省,赣州市,章贡区,4000100100,[],4.3,17.00,114.936963,25.819216
B0I31M4BY0,贤寮啡舍,咖啡店,餐饮服务;咖啡厅;咖啡厅,南外街道渔湾新苑1栋10号店铺,"114.930055,25.845996",江西省,赣州市,章贡区,15083749019,文明大道,4.1,18.00,114.930055,25.845996
B0FFMDZKOL,luckin coffee 瑞幸咖啡(赣州巨亿万达广场店),咖啡店,餐饮服务;咖啡厅;咖啡厅,万达广场(赣州巨亿店),"114.956898,25.831933",江西省,赣州市,章贡区,[],八一四大道,4.3,17.00,114.956898,25.831933
B0L6ZCN1T3,拾光纪MemoryCafe(星洲湾九境·好友店),咖啡店,餐饮服务;咖啡厅;咖啡厅,经济技术开发区星洲湾·九境北门对面金都中心2栋13/14,"114.905488,25.822475",江西省,赣州市,章贡区,19870739657,[],3.9,[],114.905488,25.822475
B0KKXD39KK,大橘烤包·咖啡(泽丰环球汇店),咖啡店,餐饮服务;中餐厅;中餐厅,安远路9号泽丰环球汇1层1036c商铺(麦当劳隔壁),"114.946440,25.820349",江西省,赣州市,章贡区,18162199908,[],3.9,20.00,114.94644,25.820349
B0IRYHAULF,赵一鸣零食(赣州万象城店),零食店,购物服务;专卖店;专营店,新赣州大道8号赣州万象城,"114.927491,25.816364",江西省,赣州市,章贡区,4000702717,[],4.5,42.00,114.927491,25.816364
B0IAGS4PCM,赵一鸣零食(赣州宝能城店),零食店,购物服务;专卖店;专营店,定南路8-11号,"114.944501,25.822400",江西省,赣州市,章贡区,4000702717,[],4.4,40.00,114.944501,25.8224
B0I097LUAO,赵一鸣零食(赣州文清路店),零食店,购物服务;专卖店;专营店,文清路77-3号,"114.940092,25.861224",江西省,赣州市,章贡区,4000702717,文清路,4.7,42.00,114.940092,25.861224
B0JGXL7BUN,赵一鸣零食(赣州沙河店),零食店,购物服务;专卖店;专营店,沙河镇站东大道58号1号楼14-16号,"114.969050,25.824777",江西省,赣州市,章贡区,18979767792;4000702717,沙河,4.5,37.00,114.96905,25.824777
B0JRUZ308V,赵一鸣零食(赣州赣南大学城店),零食店,购物服务;专卖店;专营店,105国道6号赣南大学城文化广场2号楼1层134-135号,"114.892740,25.798430",江西省,赣州市,章贡区,4000702717,[],4.6,41.00,114.89274,25.79843
B0IR0ZV432,赵一鸣零食(赣州环城路南门口店),零食店,购物服务;专卖店;专营店,环城路7号,"114.936760,25.851561",江西省,赣州市,章贡区,4000702717,红旗大道,4.5,38.00,114.93676,25.851561
B0I2NMOFTG,赵一鸣零食(赣州万盛广场店),零食店,购物服务;专卖店;专营店,宁都路16-10号,"114.939261,25.825061",江西省,赣州市,章贡区,4000702717,[],4.5,41.00,114.939261,25.825061
B0JR479KU9,赵一鸣零食(赣州金星村店),零食店,购物服务;专卖店;专营店,金蝉路与金叶路交叉口西20米,"114.899161,25.833193",江西省,赣州市,章贡区,4000702717,[],4.6,42.00,114.899161,25.833193
B0K0X7RGOB,赵一鸣零食(赣州南门口润达店),零食店,购物服务;专卖店;专营店,红旗大道南门口B地块南门Q-park购物中心一层004号铺位,"114.938313,25.848102",江西省,赣州市,章贡区,4000702717,东阳山路,4.6,[],114.938313,25.848102
B0IDVAUBWT,赵一鸣零食(赣州中海社区店),零食店,购物服务;专卖店;专营店,信丰路43号,"114.920927,25.828504",江西省,赣州市,章贡区,4000702717,[],4.5,39.00,114.920927,25.828504
B0JK7ZP3VA,赵一鸣零食(赣州章贡中学京九校区店),零食店,购物服务;专卖店;专营店,京九路173号,"114.960617,25.827207",江西省,赣州市,章贡区,4000702717,沙河,4.4,36.00,114.960617,25.827207
B0I26CHUF0,赵一鸣零食(赣州华坚店),零食店,购物服务;专卖店;专营店,华坚路58号,"114.895955,25.840192",江西省,赣州市,章贡区,4000702717,华坚路,4.4,41.00,114.895955,25.840192
B0IR05RDZF,赵一鸣零食(赣州东桥路店),零食店,购物服务;专卖店;专营店,东桥路3号,"114.951515,25.851187",江西省,赣州市,章贡区,4000702717,红旗大道,4.2,36.00,114.951515,25.851187
B0JUZUEEWI,赵一鸣零食(赣州锦绣新天地店),零食店,购物服务;专卖店;专营店,锦绣新天地26号楼9号铺,"114.862605,25.844306",江西省,赣州市,章贡区,4000702717,[],4.6,38.00,114.862605,25.844306
B0I2PUJW0S,赵一鸣零食(赣州宋城花园店),零食店,购物服务;专卖店;专营店,黄屋坪路23号宋城花园,"114.946422,25.844734",江西省,赣州市,章贡区,4000702717,文明大道,4.3,39.00,114.946422,25.844734
B0J0T6KB07,赵一鸣零食(赣州阳光和谐家园店),零食店,购物服务;专卖店;专营店,狮形岭路与滨水路交叉口东160米,"114.910008,25.777424",江西省,赣州市,章贡区,4000702717,[],4.4,38.00,114.910008,25.777424
B0I37SS3QY,赵一鸣零食(赣州一中店),零食店,购物服务;专卖店;专营店,赣江街道厚德路56号5/678号店铺,"114.947980,25.854301",江西省,赣州市,章贡区,4000702717,红旗大道,4.3,39.00,114.94798,25.854301
B0KU1HRNVQ,赵一鸣零食(赣州水游城店),零食店,购物服务;专卖店;专营店,五指峰路35号,"114.931885,25.815185",江西省,赣州市,章贡区,4000702717,[],4.6,[],114.931885,25.815185
B0JK2SV3VG,赵一鸣零食(赣州黄金时代店),零食店,购物服务;专卖店;专营店,赞贤路9-76号,"114.930000,25.830543",江西省,赣州市,章贡区,4000702717,[],4.5,39.00,114.93,25.830543
B0I1ZAKMAG,赵一鸣零食店(杨梅新村店),零食店,购物服务;专卖店;专营店,杨梅二期东3门南120米,"114.899770,25.853178",江西省,赣州市,章贡区,18970133038;4000702717,[],4.4,39.00,114.89977,25.853178
B0IKASNJ7J,赵一鸣零食(赣州水西镇店),零食店,购物服务;专卖店;专营店,水西农贸市场对面,"114.923991,25.891849",江西省,赣州市,章贡区,4000702717,[],4.4,39.00,114.923991,25.891849
B0J31CNL4F,粒上皇,零食店,购物服务;综合市场;果品市场,文青路19-1,"114.939649,25.852621",江西省,赣州市,章贡区,15256466547,文清路,4.2,15.00,114.939649,25.852621
B0IDJU812T,赵一鸣零食(赣州云星世纪广场店),零食店,购物服务;专卖店;专营店,赣江源大道8号云星世纪广场F1层,"114.951069,25.819033",江西省,赣州市,章贡区,4000702717,瑞金路,4.1,37.00,114.951069,25.819033
B0J19ZWPMD,赵一鸣零食(赣州翡翠华庭店),零食店,购物服务;专卖店;专营店,文武坝路36号,"114.924097,25.803874",江西省,赣州市,章贡区,4000702717,[],4.6,41.00,114.924097,25.803874
B0J22MMN1G,赵一鸣零食(赣州潭东镇店),零食店,购物服务;专卖店;专营店,玉潭路22b8号,"114.875130,25.753656",江西省,赣州市,章贡区,4000702717,[],4.6,42.00,114.87513,25.753656
B0I1KCXLQS,赵一鸣零食(赣州福安店),零食店,购物服务;专卖店;专营店,九曲河路福安小区38-2,"114.928978,25.804750",江西省,赣州市,章贡区,4000702717,[],4.3,42.00,114.928978,25.80475
B0KABM9FU1,赵一鸣零食(赣州湖边镇下安店),零食店,购物服务;专卖店;专营店,下安小区,"114.915485,25.880010",江西省,赣州市,章贡区,4000702717,[],4.5,[],114.915485,25.88001
B0I1RZ0S8I,赵一鸣零食(赣州三康庙店),零食店,购物服务;专卖店;专营店,西桥路4号1-5,"114.923251,25.854557",江西省,赣州市,章贡区,4000702717,三康庙,4.1,36.00,114.923251,25.854557
B0H35R41AP,略略熊零食量贩(万象城店),零食店,购物服务;超级市场;超市,三百山路C区27栋3层(华润B座对面),"114.927341,25.816456",江西省,赣州市,章贡区,4009965887,[],4.4,[],114.927341,25.816456
B0LRK5IO1V,赵一鸣零食(赣州章贡巨亿万达广场店),零食店,购物服务;专卖店;专营店,万达广场赣州巨亿店2号门旁,"114.958307,25.831892",江西省,赣州市,章贡区,[],八一四大道,4.5,[],114.958307,25.831892
B0IK9ZUN20,赵一鸣零食(赣州客家大道店),零食店,购物服务;专卖店;专营店,经济开发区客家大道176号客家苑A2栋19-20号,"114.913595,25.835399",江西省,赣州市,章贡区,4000702717,客家大道,4.4,42.00,114.913595,25.835399
B0L6LLEQLE,赵一鸣零食(赣州富苑小区店),零食店,购物服务;专卖店;专营店,"富苑小区8栋4号,5号,6号","114.927203,25.822481",江西省,赣州市,章贡区,4000702717,[],4.7,[],114.927203,25.822481
B0I33RYFQ4,赵一鸣零食(赣州潭口广场店),零食店,购物服务;专卖店;专营店,广场南路109b,"114.848911,25.741219",江西省,赣州市,章贡区,4000702717,[],4.6,37.00,114.848911,25.741219
B0IG258O9R,赵一鸣零食(赣州蓝湾美郡店),零食店,购物服务;专卖店;专营店,张家围路48号,"114.949443,25.839032",江西省,赣州市,章贡区,4000702717,章江北,4.6,36.00,114.949443,25.839032
B0IABRKAQQ,赵一鸣零食(赣州香溢华府店),零食店,购物服务;专卖店;专营店,纬一路香溢华府3-8,"114.902210,25.866669",江西省,赣州市,章贡区,4000702717,[],4.4,42.00,114.90221,25.866669
B0K6RZEET8,赵一鸣零食(赣州万达店),零食店,购物服务;专卖店;专营店,章贡区经济技术开发区东江源大道东侧水墨兰庭2号楼店面13,"114.903395,25.843258",江西省,赣州市,章贡区,4000702717,[],4.5,[],114.903395,25.843258
B0IAYZS6KT,赵一鸣零食(赣州金钻店),零食店,购物服务;专卖店;专营店,金钻广场东门旁,"114.956666,25.847247",江西省,赣州市,章贡区,4000702717,文明大道,4.5,[],114.956666,25.847247
B0J2R4EODT,粒上皇(宝能世纪城店),零食店,购物服务;综合市场;果品市场,宝城东区安远路9-76号,"114.944847,25.821849",江西省,赣州市,章贡区,15256466547,[],4.3,24.00,114.944847,25.821849
B0K3Y7I1QL,赵一鸣零食(赣州大公路店),零食店,购物服务;专卖店;专营店,大公路104号,"114.941855,25.857012",江西省,赣州市,章贡区,4000702717,文清路,4.2,[],114.941855,25.857012
B0I2GK0FGY,良品铺子(赣州宝能广场店),零食店,购物服务;购物相关场所;购物相关场所,赣江源大道11号宝能广场负一楼,"114.944933,25.821010",江西省,赣州市,章贡区,4001177517,[],3.9,58.00,114.944933,25.82101
B0JKGA20XA,赵一鸣零食(湖边店),零食店,购物服务;专卖店;专营店,湖边镇宋城路201号向日蔡公寓一层11商铺,"114.913944,25.857264",江西省,赣州市,章贡区,4000702717,[],4.4,40.00,114.913944,25.857264
B0KAYA0AHV,赵一鸣零食(赣州赣港康居店),零食店,购物服务;专卖店;专营店,赣港康居社区东南门西南50米,"114.873348,25.869415",江西省,赣州市,章贡区,4000702717,[],4.5,[],114.873348,25.869415
B0IRHUV48J,赵一鸣零食(赣州黄金康居店),零食店,购物服务;专卖店;专营店,黄金康居西门旁,"114.910868,25.829114",江西省,赣州市,章贡区,4000702717,[],4.3,36.00,114.910868,25.829114
B0KD97RLRH,赵一鸣零食(赣州中航云府店),零食店,购物服务;专卖店;专营店,赣康路27-7号,"114.909721,25.823699",江西省,赣州市,章贡区,4000702717,[],4.5,[],114.909721,25.823699
B0LA6A7O41,糖叙糖水铺(赣州温馨家园店),零食店,餐饮服务;冷饮店;冷饮店,新路村温馨家园悦园19号5号铺,"114.911320,25.779392",江西省,赣州市,章贡区,19196700910,[],4.3,19.00,114.91132,25.779392
B0KRUMZ01H,赵一鸣零食(赣州西郊路二康庙店),零食店,购物服务;专卖店;专营店,西郊路31号-11号-17号临街店面,"114.927359,25.856439",江西省,赣州市,章贡区,4000702717,理工,4.4,8.00,114.927359,25.856439
B0K3FSJ7SL,好想来品牌零食(赣州章贡区海亮天城店),零食店,购物服务;专卖店;专营店,东江源大道66号海亮天城商业街广场53号楼1-4号,"114.927058,25.802806",江西省,赣州市,章贡区,4000107777,[],4.3,[],114.927058,25.802806
B0L6GND0SP,零食有鸣批发超市(天空之城店),零食店,购物服务;购物相关场所;购物相关场所,赣州经济技术开发区纬二路12号天空之城小区5栋03号店铺,"114.907374,25.863625",江西省,赣州市,章贡区,[],[],4.4,[],114.907374,25.863625
B0GKM6O2UH,零食搜巡(迎宾花园店),零食店,购物服务;专卖店;专营店,章江北大道58-23号,"114.940819,25.842673",江西省,赣州市,章贡区,18970116616;4009600297,营角上,4.4,[],114.940819,25.842673
B0J6PLBSER,糖巢量贩零食(环城路店),零食店,购物服务;专卖店;专营店,环城路59号店13-15号,"114.935969,25.855896",江西省,赣州市,章贡区,19070721381,红旗大道,4.4,21.00,114.935969,25.855896
B0IKXZPSFB,钟和风零食(杨坑店),零食店,购物服务;专卖店;专营店,章贡区经济技术开发区工业三路锦绣新天地28栋3号商铺,"114.864018,25.843339",江西省,赣州市,章贡区,13576715172,[],4.3,152.00,114.864018,25.843339
B0KRPCQT7F,赵一鸣零食(赣州瑞心家园店),零食店,购物服务;专卖店;专营店,叶坪路19号瑞心家园18栋2-3号商铺,"114.941734,25.813782",江西省,赣州市,章贡区,4000702717,[],4.4,[],114.941734,25.813782
B0J12A1SRW,赵一鸣零食(赣州沙石镇荣茂家园店),零食店,购物服务;专卖店;专营店,226省道125号,"114.940804,25.785157",江西省,赣州市,章贡区,4000702717,[],4.3,37.00,114.940804,25.785157
B0FFFVNZ73,良品铺子(赣州文清路实验小学店),零食店,购物服务;专卖店;专营店,滩儿上路12号繁荣广场B栋3号4号店面,"114.920829,25.850030",江西省,赣州市,章贡区,18270060337;4001177517,红旗大道,4.2,[],114.920829,25.85003
B0FFKX4Q6P,果真好,零食店,购物服务;综合市场;果品市场,厚德路60-B3号,"114.947706,25.854285",江西省,赣州市,章贡区,15170619722;15817989805,红旗大道,4.3,[],114.947706,25.854285
B0KKVS37U7,钟和风零食批发超市(联泰天璟店),零食店,购物服务;购物相关场所;购物相关场所,联泰天璟,"114.896700,25.814285",江西省,赣州市,章贡区,[],[],4.5,[],114.8967,25.814285
B0J6MCNE2I,糖巢零食(赣州章贡湖边店),零食店,购物服务;购物相关场所;购物相关场所,赣州经济技术开发区湖边镇宋城路71号2店面,"114.916086,25.861547",江西省,赣州市,章贡区,15170599913,[],4.2,24.00,114.916086,25.861547
B0KDBCKXDM,赵一鸣零食(赣州水西镇和乐店),零食店,购物服务;专卖店;专营店,冶金大道5号,"114.919706,25.929209",江西省,赣州市,章贡区,4000702717,[],4.3,[],114.919706,25.929209
B0FFHSDA4N,良品铺子(赣州万象城店),零食店,购物服务;购物相关场所;购物相关场所,登峰大道华润万象城负一楼超市出口,"114.926532,25.814937",江西省,赣州市,章贡区,[],[],4.0,[],114.926532,25.814937
B031D0RAN4,好想你枣(健康路店),零食店,购物服务;综合市场;果品市场,健康路28-3号,"114.944825,25.852850",江西省,赣州市,章贡区,18607970098,文清路,4.1,[],114.944825,25.85285
B0J1994VIA,糖巢量贩零食(宝能世纪城店),零食店,购物服务;购物相关场所;购物相关场所,安远路8号安能世纪城西区3号楼5号商铺,"114.944178,25.822091",江西省,赣州市,章贡区,18259965270,[],4.4,19.00,114.944178,25.822091
B0KD4U1B9G,赵一鸣零食(赣州金色春城店),零食店,购物服务;专卖店;专营店,赣南大道1888号,"114.882919,25.783635",江西省,赣州市,章贡区,4000702717,[],4.4,[],114.882919,25.783635
B0JKRSU26A,赵一鸣零食(赣州沙石镇吉埠新村店),零食店,购物服务;专卖店;专营店,和谐大道seo网站,"114.957804,25.807596",江西省,赣州市,章贡区,4000702717,[],4.4,37.00,114.957804,25.807596
